[{"ua":{"name":"Хмельницький"},"ru":{"name":"Хмельницкий","old_name":"Проскуров"},"nodes":[{"lat":49.4196404,"lon":26.9793793}]},{"ua":{"name":"Яремче"},"ru":{"name":"Яремче"},"nodes":[{"lat":48.4504129,"lon":24.550955}]},{"ua":{"name":"Ворохта"},"ru":{"name":"Ворохта"},"nodes":[{"lat":48.2920441,"lon":24.5624038}]},{"ua":{"name":"Дземброня","old_name":"Берестечко"},"ru":{"name":"Дземброня","old_name":"Берестечко"},"nodes":[{"lat":48.099358,"lon":24.686344}]},{"ua":{"name":"Бистрець"},"ru":{"name":"Быстрец"},"nodes":[{"lat":48.126553,"lon":24.664478}]},{"ua":{"name":"Тисмениця"},"ru":{"name":"Тысменица"},"nodes":[{"lat":48.9018102,"lon":24.8484719}]},{"ua":{"name":"Ленківці"},"ru":{"name":"Ленковцы"},"nodes":[{"lat":48.506092,"lon":26.758886}]},{"ua":{"name":"Кельменці"},"ru":{"name":"Кельменцы"},"nodes":[{"lat":48.4655533,"lon":26.8299962}]},{"ua":{"name":"Хотин"},"ru":{"name":"Хотин"},"nodes":[{"lat":48.5068418,"lon":26.4859086}]},{"ua":{"name":"Кам’янець-Подільський","old_name":"Кам’янець"},"ru":{"name":"Каменец-Подольский","old_name":"Кам’янець"},"nodes":[{"lat":48.6784597,"lon":26.5852225}]},{"ua":{"name":"Івано-Франківськ","old_name":"Станиславів"},"ru":{"name":"Ивано-Франковск","old_name":"Станиславів"},"nodes":[{"lat":48.9225224,"lon":24.7103188}]},{"ua":{"name":"Бабин"},"ru":{"name":"Бабин"},"nodes":[{"lat":48.5243,"lon":26.857307}]},{"ua":{"name":"Бурдюг"},"ru":{"name":"Бурдюг"},"nodes":[{"lat":48.481884,"lon":26.891811}]},{"ua":{"name":"Вартиківці"},"ru":{"name":"Вартиковцы"},"nodes":[{"lat":48.437031,"lon":26.791904}]},{"ua":{"name":"Вовчинець"},"ru":{"name":"Волчинец"},"nodes":[{"lat":48.455822,"lon":26.916702}]},{"ua":{"name":"Вороновиця"},"ru":{"name":"Вороновица"},"nodes":[{"lat":48.550503,"lon":26.668446}]},{"ua":{"name":"Грушівці"},"ru":{"name":"Грушевцы"},"nodes":[{"lat":48.548626,"lon":26.821949}]},{"ua":{"name":"Дністрівка"},"ru":{"name":"Днестровка"},"nodes":[{"lat":48.534756,"lon":26.925629}]},{"ua":{"name":"Зелена"},"ru":{"name":"Зелёная"},"nodes":[{"lat":48.363003,"lon":26.733852}]},{"ua":{"name":"Козиряни"},"ru":{"name":"Козыряны"},"nodes":[{"lat":48.368427,"lon":26.645151}]},{"ua":{"name":"Комарів"},"ru":{"name":"Комаров"},"nodes":[{"lat":48.561234,"lon":26.990002}]},{"ua":{"name":"Коновка"},"ru":{"name":"Коновка"},"nodes":[{"lat":48.508156,"lon":26.719137}]},{"ua":{"name":"Лівинці"},"ru":{"name":"Левинцы"},"nodes":[{"lat":48.408604,"lon":26.609051}]},{"ua":{"name":"Кроква"},"ru":{"name":"Кроква"},"nodes":[{"lat":48.422226,"lon":26.609781}]},{"ua":{"name":"Лукачівка"},"ru":{"name":"Лукачовка"},"nodes":[{"lat":48.378685,"lon":26.94503}]},{"ua":{"name":"Макарівка"},"ru":{"name":"Макаровка"},"nodes":[{"lat":48.573048,"lon":26.745556}]},{"ua":{"name":"Михайлівка"},"ru":{"name":"Михайловка"},"nodes":[{"lat":48.385986,"lon":26.609102}]},{"ua":{"name":"Мошанець"},"ru":{"name":"Мошанец"},"nodes":[{"lat":48.474831,"lon":26.694761}]},{"ua":{"name":"Нелипівці"},"ru":{"name":"Нелиповцы"},"nodes":[{"lat":48.41721,"lon":26.921341}]},{"ua":{"name":"Новоселиця"},"ru":{"name":"Новоселица"},"nodes":[{"lat":48.427979,"lon":26.983231}]},{"ua":{"name":"Оселівка"},"ru":{"name":"Оселевка"},"nodes":[{"lat":48.438221,"lon":26.619179}]},{"ua":{"name":"Перківці"},"ru":{"name":"Перковцы"},"nodes":[{"lat":48.4503545,"lon":26.6556676}]},{"ua":{"name":"Подвір’ївка"},"ru":{"name":"Подворьевка"},"nodes":[{"lat":48.310745,"lon":26.788706}]},{"ua":{"name":"Слобідка"},"ru":{"name":"Слободка"},"nodes":[{"lat":48.420971,"lon":26.770975}]},{"ua":{"name":"Criva"},"ru":{"name":"Крива"},"nodes":[{"lat":48.2675783,"lon":26.669946}]},{"ua":{"name":"Coteala"},"ru":{"name":"Котяла"},"nodes":[{"lat":48.3273329,"lon":26.8634039}]},{"ua":{"name":"Cotiujeni"},"ru":{"name":"Котюжень"},"nodes":[{"lat":48.3459752,"lon":26.9391224}]},{"ua":{"name":"Медвежа"},"ru":{"name":"Медвежа"},"nodes":[{"lat":48.3598488,"lon":26.7914246}]},{"ua":{"name":"Larga"},"ru":{"name":"Ларга"},"nodes":[{"lat":48.3720628,"lon":26.8419036}]},{"ua":{"name":"Павлівка"},"ru":{"name":"Павловка"},"nodes":[{"lat":48.377646,"lon":26.8743098}]},{"ua":{"name":"Слобідка-Медвежа"},"ru":{"name":"Слободка-Медвежа"},"nodes":[{"lat":48.3817906,"lon":26.7474891}]},{"ua":{"name":"Коломия"},"ru":{"name":"Коломыя"},"nodes":[{"lat":48.5259211,"lon":25.0380538}]},{"ua":{"name":"Вашківці"},"ru":{"name":"Вашковцы"},"nodes":[{"lat":48.3820192,"lon":25.5174954}]},{"ua":{"name":"Вижниця"},"ru":{"name":"Вижница"},"nodes":[{"lat":48.2479891,"lon":25.1892546}]},{"ua":{"name":"Герца"},"ru":{"name":"Герца"},"nodes":[{"lat":48.1502154,"lon":26.2585431}]},{"ua":{"name":"Заставна"},"ru":{"name":"Заставна"},"nodes":[{"lat":48.5224375,"lon":25.8457245}]},{"ua":{"name":"Кіцмань"},"ru":{"name":"Кицмань"},"nodes":[{"lat":48.4386498,"lon":25.7610109}]},{"ua":{"name":"Новоселиця"},"ru":{"name":"Новоселица"},"nodes":[{"lat":48.2179594,"lon":26.2664831}]},{"ua":{"name":"Сторожинець"},"ru":{"name":"Сторожинец"},"nodes":[{"lat":48.163016,"lon":25.7208194}]},{"ua":{"name":"Анадоли"},"ru":{"name":"Анадолы"},"nodes":[{"lat":48.482136,"lon":26.530344}]},{"ua":{"name":"Атаки"},"ru":{"name":"Атаки"},"nodes":[{"lat":48.543308,"lon":26.479189}]},{"ua":{"name":"Білівці"},"ru":{"name":"Беловцы"},"nodes":[{"lat":48.349514,"lon":26.483652}]},{"ua":{"name":"Бочківці"},"ru":{"name":"Бочковцы"},"nodes":[{"lat":48.428772,"lon":26.168003}]},{"ua":{"name":"Владична"},"ru":{"name":"Владычна"},"nodes":[{"lat":48.4271679,"lon":26.3473182}]},{"ua":{"name":"Ворничани"},"ru":{"name":"Ворничаны"},"nodes":[{"lat":48.418743,"lon":26.483738}]},{"ua":{"name":"Гордівці"},"ru":{"name":"Гордовцы"},"nodes":[{"lat":48.506054,"lon":26.333191}]},{"ua":{"name":"Гринячка"},"ru":{"name":"Гринячка"},"nodes":[{"lat":48.517845,"lon":26.159899}]},{"ua":{"name":"Грозинці"},"ru":{"name":"Грозинцы"},"nodes":[{"lat":48.4210977,"lon":26.1513118}]},{"ua":{"name":"Данківці"},"ru":{"name":"Данковцы"},"nodes":[{"lat":48.423615,"lon":26.511461}]},{"ua":{"name":"Долиняни"},"ru":{"name":"Долиняны"},"nodes":[{"lat":48.408665,"lon":26.426386}]},{"ua":{"name":"Зарожани"},"ru":{"name":"Зарожаны"},"nodes":[{"lat":48.4242352,"lon":26.2992122}]},{"ua":{"name":"Зелена Липа"},"ru":{"name":"Зелёная Липа"},"nodes":[{"lat":48.539673,"lon":26.127111}]},{"ua":{"name":"Каплівка"},"ru":{"name":"Каплевка"},"nodes":[{"lat":48.447674,"lon":26.511375}]},{"ua":{"name":"Керстенці"},"ru":{"name":"Керстенцы"},"nodes":[{"lat":48.37381,"lon":26.347868}]},{"ua":{"name":"Клішківці"},"ru":{"name":"Клишковцы"},"nodes":[{"lat":48.430443,"lon":26.259632}]},{"ua":{"name":"Колінківці"},"ru":{"name":"Коленковцы"},"nodes":[{"lat":48.410507,"lon":26.139727}]},{"ua":{"name":"Круглик"},"ru":{"name":"Круглик"},"nodes":[{"lat":48.369591,"lon":26.451551}]},{"ua":{"name":"Крутеньки"},"ru":{"name":"Крутеньки"},"nodes":[{"lat":48.370758,"lon":26.549999}]},{"ua":{"name":"Малинці"},"ru":{"name":"Малинцы"},"nodes":[{"lat":48.423052,"lon":26.2248896}]},{"ua":{"name":"Млинки"},"ru":{"name":"Млынки"},"nodes":[{"lat":48.459713,"lon":26.230795}]},{"ua":{"name":"Недобоївці"},"ru":{"name":"Недобоевцы"},"nodes":[{"lat":48.427788,"lon":26.369761}]},{"ua":{"name":"Орестівка"},"ru":{"name":"Орестовка"},"nodes":[{"lat":48.515152,"lon":26.385376}]},{"ua":{"name":"Пашківці"},"ru":{"name":"Пашковцы"},"nodes":[{"lat":48.389999,"lon":26.481249}]},{"ua":{"name":"Перебиківці"},"ru":{"name":"Перебыковцы"},"nodes":[{"lat":48.580799,"lon":26.139812}]},{"ua":{"name":"Поляна"},"ru":{"name":"Поляна"},"nodes":[{"lat":48.490925,"lon":26.238091}]},{"ua":{"name":"Рашків"},"ru":{"name":"Рашков"},"nodes":[{"lat":48.511143,"lon":26.273195}]},{"ua":{"name":"Рукшин"},"ru":{"name":"Рукшин"},"nodes":[{"lat":48.490925,"lon":26.401684}]},{"ua":{"name":"Санківці"},"ru":{"name":"Санковцы"},"nodes":[{"lat":48.370399,"lon":26.226656}]},{"ua":{"name":"Ставчани"},"ru":{"name":"Ставчаны"},"nodes":[{"lat":48.389427,"lon":26.410181}]},{"ua":{"name":"Чепоноси"},"ru":{"name":"Чепоносы"},"nodes":[{"lat":48.48296,"lon":26.35379}]},{"ua":{"name":"Шилівці"},"ru":{"name":"Шиловцы"},"nodes":[{"lat":48.430603,"lon":26.192301}]},{"ua":{"name":"Ярівка"},"ru":{"name":"Яровка"},"nodes":[{"lat":48.360008,"lon":26.530687}]},{"ua":{"name":"Балківці"},"ru":{"name":"Балковцы"},"nodes":[{"lat":48.34977,"lon":26.567852}]},{"ua":{"name":"Берестя"},"ru":{"name":"Берестя"},"nodes":[{"lat":48.330589,"lon":26.358099}]},{"ua":{"name":"Бояни"},"ru":{"name":"Бояны"},"nodes":[{"lat":48.26688,"lon":26.126339}]},{"ua":{"name":"Боянівка"},"ru":{"name":"Бояновка"},"nodes":[{"lat":48.250309,"lon":26.163074}]},{"ua":{"name":"Буда"},"ru":{"name":"Буда"},"nodes":[{"lat":48.310616,"lon":26.025829}]},{"ua":{"name":"Ванчиківці"},"ru":{"name":"Ванчиковцы"},"nodes":[{"lat":48.220112,"lon":26.450109}]},{"ua":{"name":"Ванчинець"},"ru":{"name":"Ванчинец"},"nodes":[{"lat":48.208797,"lon":26.41164}]},{"ua":{"name":"Гай"},"ru":{"name":"Гай"},"nodes":[{"lat":48.327404,"lon":26.149586}]},{"ua":{"name":"Довжок"},"ru":{"name":"Должок"},"nodes":[{"lat":48.340973,"lon":26.332865}]},{"ua":{"name":"Драниця"},"ru":{"name":"Драница"},"nodes":[{"lat":48.230873,"lon":26.53352}]},{"ua":{"name":"Жилівка"},"ru":{"name":"Жиловка"},"nodes":[{"lat":48.343155,"lon":26.429836}]},{"ua":{"name":"Зелений Гай"},"ru":{"name":"Зелёный Гай"},"nodes":[{"lat":48.228584,"lon":26.21217}]},{"ua":{"name":"Костичани"},"ru":{"name":"Костичаны"},"nodes":[{"lat":48.225613,"lon":26.510002}]},{"ua":{"name":"Котелеве"},"ru":{"name":"Котелево"},"nodes":[{"lat":48.281132,"lon":26.35758}]},{"ua":{"name":"Кошуляни"},"ru":{"name":"Кошуляны"},"nodes":[{"lat":48.250641,"lon":26.560316}]},{"ua":{"name":"Стерче"},"ru":{"name":"Стерче"},"nodes":[{"lat":48.030472,"lon":26.020092}]},{"ua":{"name":"Малинівка"},"ru":{"name":"Малиновка"},"nodes":[{"lat":48.318161,"lon":26.336281}]},{"ua":{"name":"Мамалига"},"ru":{"name":"Мамалыга"},"nodes":[{"lat":48.259453,"lon":26.585018}]},{"ua":{"name":"Кут"},"ru":{"name":"Кут"},"nodes":[{"lat":48.1999045,"lon":26.0393627}]},{"ua":{"name":"Негринці"},"ru":{"name":"Негринцы"},"nodes":[{"lat":48.235332,"lon":26.549313}]},{"ua":{"name":"Несвоя"},"ru":{"name":"Несвоя"},"nodes":[{"lat":48.33688,"lon":26.575577}]},{"ua":{"name":"Новоіванківці"},"ru":{"name":"Новоиванковцы"},"nodes":[{"lat":48.221039,"lon":26.477215}]},{"ua":{"name":"Остриця"},"ru":{"name":"Острица"},"nodes":[{"lat":48.2578433,"lon":26.0481688}]},{"ua":{"name":"Припруття"},"ru":{"name":"Припрутье"},"nodes":[{"lat":48.257393,"lon":26.163074}]},{"ua":{"name":"Ревківці"},"ru":{"name":"Ревковцы"},"nodes":[{"lat":48.280457,"lon":26.210768}]},{"ua":{"name":"Рингач"},"ru":{"name":"Рынгач"},"nodes":[{"lat":48.310272,"lon":26.24102}]},{"ua":{"name":"Рідківці"},"ru":{"name":"Редковцы"},"nodes":[{"lat":48.337463,"lon":26.060968}]},{"ua":{"name":"Рокитне"},"ru":{"name":"Ракитное"},"nodes":[{"lat":48.33083,"lon":26.187351}]},{"ua":{"name":"Строїнці"},"ru":{"name":"Строинцы"},"nodes":[{"lat":48.2430341,"lon":26.2554122}]},{"ua":{"name":"Топорівці"},"ru":{"name":"Топоровцы"},"nodes":[{"lat":48.378967,"lon":26.086685}]},{"ua":{"name":"Форосна"},"ru":{"name":"Форосна"},"nodes":[{"lat":48.31953,"lon":26.437389}]},{"ua":{"name":"Магала"},"ru":{"name":"Магала"},"nodes":[{"lat":48.289864,"lon":26.040028}]},{"ua":{"name":"Чорнівка"},"ru":{"name":"Черновка"},"nodes":[{"lat":48.420135,"lon":26.009895}]},{"ua":{"name":"Шишківці"},"ru":{"name":"Шишковцы"},"nodes":[{"lat":48.345551,"lon":26.273968}]},{"ua":{"name":"Уторопи"},"ru":{"name":"Уторопы"},"nodes":[{"lat":48.383949,"lon":24.993484}]},{"ua":{"name":"Ланчин"},"ru":{"name":"Ланчин"},"nodes":[{"lat":48.5554737,"lon":24.7523396}]},{"ua":{"name":"Заболотів"},"ru":{"name":"Заболотов"},"nodes":[{"lat":48.466829,"lon":25.2830554}]},{"ua":{"name":"Лужани"},"ru":{"name":"Лужаны"},"nodes":[{"lat":48.3580513,"lon":25.7690413}]},{"ua":{"name":"Берегомет"},"ru":{"name":"Берегомет"},"nodes":[{"lat":48.363983,"lon":25.692566}]},{"ua":{"name":"Доброводи"},"ru":{"name":"Доброводы"},"nodes":[{"lat":49.7196445,"lon":25.6309256}]},{"ua":{"name":"Збараж"},"ru":{"name":"Збараж"},"nodes":[{"lat":49.6607393,"lon":25.7768485}]},{"ua":{"name":"Борщів"},"ru":{"name":"Борщёв"},"nodes":[{"lat":48.8025557,"lon":26.0401871}]},{"ua":{"name":"Бережани"},"ru":{"name":"Бережаны"},"nodes":[{"lat":49.4450296,"lon":24.938854}]},{"ua":{"name":"Бучач"},"ru":{"name":"Бучач"},"nodes":[{"lat":49.0630503,"lon":25.389969}]},{"ua":{"name":"Заліщики"},"ru":{"name":"Залещики"},"nodes":[{"lat":48.6402658,"lon":25.735898}]},{"ua":{"name":"Зборів"},"ru":{"name":"Зборов"},"nodes":[{"lat":49.6645222,"lon":25.1386197}]},{"ua":{"name":"Ланівці"},"ru":{"name":"Лановцы"},"nodes":[{"lat":49.8734191,"lon":26.0780148}]},{"ua":{"name":"Монастириська"},"ru":{"name":"Монастыриска"},"nodes":[{"lat":49.0908395,"lon":25.1717816}]},{"ua":{"name":"Підгайці"},"ru":{"name":"Подгайцы"},"nodes":[{"lat":49.2680238,"lon":25.1361578}]},{"ua":{"name":"Скалат"},"ru":{"name":"Скалат"},"nodes":[{"lat":49.4247925,"lon":25.9775084}]},{"ua":{"name":"Теребовля"},"ru":{"name":"Теребовля"},"nodes":[{"lat":49.2960742,"lon":25.692491}]},{"ua":{"name":"Хоростків"},"ru":{"name":"Хоростков"},"nodes":[{"lat":49.2121531,"lon":25.9168525}]},{"ua":{"name":"Чортків"},"ru":{"name":"Чортков"},"nodes":[{"lat":49.0160555,"lon":25.7925191}]},{"ua":{"name":"Бурштин"},"ru":{"name":"Бурштын"},"nodes":[{"lat":49.2516597,"lon":24.633877}]},{"ua":{"name":"Галич"},"ru":{"name":"Галич"},"nodes":[{"lat":49.123317,"lon":24.7299495}]},{"ua":{"name":"Городенка"},"ru":{"name":"Городенка"},"nodes":[{"lat":48.6720598,"lon":25.4952722}]},{"ua":{"name":"Косів"},"ru":{"name":"Косов"},"nodes":[{"lat":48.315802,"lon":25.0983417}]},{"ua":{"name":"Надвірна"},"ru":{"name":"Надворная"},"nodes":[{"lat":48.6335887,"lon":24.5684038}]},{"ua":{"name":"Рогатин"},"ru":{"name":"Рогатин"},"nodes":[{"lat":49.4092703,"lon":24.6105811}]},{"ua":{"name":"Снятин"},"ru":{"name":"Снятын"},"nodes":[{"lat":48.4523142,"lon":25.5518046}]},{"ua":{"name":"Тлумач"},"ru":{"name":"Тлумач"},"nodes":[{"lat":48.8665866,"lon":25.0011978}]},{"ua":{"name":"Волочиськ"},"ru":{"name":"Волочиск"},"nodes":[{"lat":49.5357074,"lon":26.2125036}]},{"ua":{"name":"Городок"},"ru":{"name":"Городок"},"nodes":[{"lat":49.1652124,"lon":26.5865127}]},{"ua":{"name":"Дунаївці"},"ru":{"name":"Дунаевцы"},"nodes":[{"lat":48.886649,"lon":26.8476798}]},{"ua":{"name":"Красилів"},"ru":{"name":"Красилов"},"nodes":[{"lat":49.6550248,"lon":26.9732359}]},{"ua":{"name":"Буськ"},"ru":{"name":"Буск"},"nodes":[{"lat":49.965355,"lon":24.6089531}]},{"ua":{"name":"Глиняни"},"ru":{"name":"Глыняны"},"nodes":[{"lat":49.8220371,"lon":24.5165092}]},{"ua":{"name":"Лучківці"},"ru":{"name":"Лучковцы"},"nodes":[{"lat":49.99324,"lon":25.018215}]},{"ua":{"name":"Липина"},"ru":{"name":"Липина"},"nodes":[{"lat":49.9896555,"lon":25.1408547}]},{"ua":{"name":"Шевченка"},"ru":{"name":"Шевченко"},"nodes":[{"lat":49.997398,"lon":26.964571}]},{"ua":{"name":"Новий Ріпнів"},"ru":{"name":"Новый Репнев"},"nodes":[{"lat":49.998554,"lon":24.509428}]},{"ua":{"name":"Чижівка"},"ru":{"name":"Чижовка"},"nodes":[{"lat":49.996368,"lon":26.72184}]},{"ua":{"name":"Боратин"},"ru":{"name":"Боратин"},"nodes":[{"lat":49.996368,"lon":25.170019}]},{"ua":{"name":"Ліщани"},"ru":{"name":"Лещаны"},"nodes":[{"lat":49.993309,"lon":26.913933}]},{"ua":{"name":"Кути"},"ru":{"name":"Куты"},"nodes":[{"lat":49.993694,"lon":24.898352}]},{"ua":{"name":"Залісся"},"ru":{"name":"Залесье"},"nodes":[{"lat":49.992832,"lon":25.234489}]},{"ua":{"name":"Чішки"},"ru":{"name":"Чишки"},"nodes":[{"lat":49.99123,"lon":24.94446}]},{"ua":{"name":"Застав’є"},"ru":{"name":"Заставье"},"nodes":[{"lat":49.988361,"lon":24.846508}]},{"ua":{"name":"Підлісці"},"ru":{"name":"Подлесцы"},"nodes":[{"lat":49.999016,"lon":26.813482}]},{"ua":{"name":"Варивідки","old_name":"Вариводки"},"ru":{"name":"Вариводки","old_name":"Вариводки"},"nodes":[{"lat":49.98917,"lon":26.33148}]},{"ua":{"name":"Ланерівка"},"ru":{"name":"Ланеровка"},"nodes":[{"lat":49.9900771,"lon":24.560324}]},{"ua":{"name":"Вербляни"},"ru":{"name":"Вербляны"},"nodes":[{"lat":49.989796,"lon":24.663177}]},{"ua":{"name":"Закіт"},"ru":{"name":"Закот"},"nodes":[{"lat":49.985784,"lon":26.360831}]},{"ua":{"name":"Горинка"},"ru":{"name":"Горынка"},"nodes":[{"lat":49.98711,"lon":25.77564}]},{"ua":{"name":"Мізюринці"},"ru":{"name":"Мизюринцы"},"nodes":[{"lat":49.979579,"lon":26.089535}]},{"ua":{"name":"Мокроволя","old_name":"Зарічна Воля"},"ru":{"name":"Мокроволя","old_name":"Зарічна Воля"},"nodes":[{"lat":49.98642,"lon":26.43585}]},{"ua":{"name":"Радошівка"},"ru":{"name":"Радошовка"},"nodes":[{"lat":49.9857589,"lon":26.1325678}]},{"ua":{"name":"Микити"},"ru":{"name":"Микиты"},"nodes":[{"lat":49.984505,"lon":25.335529}]},{"ua":{"name":"Кушлин"},"ru":{"name":"Кушлин"},"nodes":[{"lat":49.98367,"lon":25.82131}]},{"ua":{"name":"Ріпнів"},"ru":{"name":"Репнев"},"nodes":[{"lat":49.982819,"lon":24.501352}]},{"ua":{"name":"Пониква"},"ru":{"name":"Пониква"},"nodes":[{"lat":49.9828,"lon":25.127768}]},{"ua":{"name":"Вільшаниця"},"ru":{"name":"Ольшаница"},"nodes":[{"lat":49.982639,"lon":26.27449}]},{"ua":{"name":"Мирне"},"ru":{"name":"Мирное"},"nodes":[{"lat":49.9823,"lon":26.6882}]},{"ua":{"name":"Іванківці"},"ru":{"name":"Иванковцы"},"nodes":[{"lat":49.9823,"lon":25.84396}]},{"ua":{"name":"Пильки"},"ru":{"name":"Пильки"},"nodes":[{"lat":49.98196,"lon":26.751369}]},{"ua":{"name":"Водички"},"ru":{"name":"Водички"},"nodes":[{"lat":49.98127,"lon":26.303671}]},{"ua":{"name":"Кудлаївка"},"ru":{"name":"Кудлаевка"},"nodes":[{"lat":49.98093,"lon":25.89958}]},{"ua":{"name":"Янгелівка"},"ru":{"name":"Ангеловка"},"nodes":[{"lat":49.982491,"lon":24.770573}]},{"ua":{"name":"Комарин"},"ru":{"name":"Комарин"},"nodes":[{"lat":49.97921,"lon":25.60741}]},{"ua":{"name":"Купче"},"ru":{"name":"Купче"},"nodes":[{"lat":49.97921,"lon":24.562679}]},{"ua":{"name":"Соснівочка"},"ru":{"name":"Сосновочка"},"nodes":[{"lat":49.979698,"lon":26.550692}]},{"ua":{"name":"Григорівка"},"ru":{"name":"Григоровка"},"nodes":[{"lat":49.977165,"lon":26.953573}]},{"ua":{"name":"Сушівці"},"ru":{"name":"Сушевцы"},"nodes":[{"lat":49.97646,"lon":26.33251}]},{"ua":{"name":"Дуб’є"},"ru":{"name":"Дубье"},"nodes":[{"lat":49.9830047,"lon":25.0758437}]},{"ua":{"name":"Підгайці"},"ru":{"name":"Подгайцы"},"nodes":[{"lat":49.9790168,"lon":25.8764087}]},{"ua":{"name":"Накваша"},"ru":{"name":"Накваша"},"nodes":[{"lat":49.974094,"lon":25.319818}]},{"ua":{"name":"Сахнівці"},"ru":{"name":"Сахновцы"},"nodes":[{"lat":49.97406,"lon":26.851959}]},{"ua":{"name":"Лукаші"},"ru":{"name":"Лукаши"},"nodes":[{"lat":49.9734873,"lon":25.2966768}]},{"ua":{"name":"Раславка"},"ru":{"name":"Раславка"},"nodes":[{"lat":49.97372,"lon":25.44983}]},{"ua":{"name":"Гумниська"},"ru":{"name":"Гумниска"},"nodes":[{"lat":49.97337,"lon":24.714781}]},{"ua":{"name":"Підгір’я"},"ru":{"name":"Подгорье"},"nodes":[{"lat":49.972691,"lon":25.13397}]},{"ua":{"name":"Чучмани"},"ru":{"name":"Чучманы"},"nodes":[{"lat":49.973526,"lon":24.686728}]},{"ua":{"name":"Дубина"},"ru":{"name":"Дубина"},"nodes":[{"lat":49.9763668,"lon":25.1012895}]},{"ua":{"name":"Орани"},"ru":{"name":"Ораны"},"nodes":[{"lat":49.969471,"lon":25.172031}]},{"ua":{"name":"Сидори"},"ru":{"name":"Сидоры"},"nodes":[{"lat":49.973125,"lon":24.852316}]},{"ua":{"name":"Калинівка"},"ru":{"name":"Калиновка"},"nodes":[{"lat":49.97028,"lon":26.76441}]},{"ua":{"name":"Жемелинці"},"ru":{"name":"Жемелинцы"},"nodes":[{"lat":49.9732826,"lon":26.4128494}]},{"ua":{"name":"Квітневе","old_name":"Бісівка"},"ru":{"name":"Квитневое","old_name":"Бісівка"},"nodes":[{"lat":49.9693342,"lon":26.5675184}]},{"ua":{"name":"Лосятин"},"ru":{"name":"Лосятин"},"nodes":[{"lat":49.96719,"lon":25.48725}]},{"ua":{"name":"Старий Тараж"},"ru":{"name":"Старый Тараж"},"nodes":[{"lat":49.9718956,"lon":25.5760198}]},{"ua":{"name":"Тихомель"},"ru":{"name":"Тихомель"},"nodes":[{"lat":49.9650755,"lon":26.2577161}]},{"ua":{"name":"Лепесівка"},"ru":{"name":"Лепесовка"},"nodes":[{"lat":49.966511,"lon":26.234671}]},{"ua":{"name":"Тетильківці"},"ru":{"name":"Тетильковцы"},"nodes":[{"lat":49.96616,"lon":25.356791}]},{"ua":{"name":"Йосипівка"},"ru":{"name":"Йосиповка"},"nodes":[{"lat":49.966702,"lon":24.862101}]},{"ua":{"name":"Піщатинці"},"ru":{"name":"Пищатинцы"},"nodes":[{"lat":49.96582,"lon":25.92396}]},{"ua":{"name":"Кізлів"},"ru":{"name":"Кизлов"},"nodes":[{"lat":49.961185,"lon":24.527168}]},{"ua":{"name":"Весняне","old_name":"Бісівочка"},"ru":{"name":"Весняное","old_name":"Бісівочка"},"nodes":[{"lat":49.96513,"lon":26.60614}]},{"ua":{"name":"Хватів"},"ru":{"name":"Хватов"},"nodes":[{"lat":49.963478,"lon":24.943172}]},{"ua":{"name":"Малий Кунинець"},"ru":{"name":"Малый Кунинец"},"nodes":[{"lat":49.96479,"lon":25.70629}]},{"ua":{"name":"Олесько"},"ru":{"name":"Олеско"},"nodes":[{"lat":49.9643248,"lon":24.8940853}]},{"ua":{"name":"Кропивна"},"ru":{"name":"Крапивна"},"nodes":[{"lat":49.964451,"lon":26.8111}]},{"ua":{"name":"Шпаки"},"ru":{"name":"Шпаки"},"nodes":[{"lat":49.967808,"lon":25.389511}]},{"ua":{"name":"Черниця"},"ru":{"name":"Черница"},"nodes":[{"lat":49.9641,"lon":25.24246}]},{"ua":{"name":"Горбалі"},"ru":{"name":"Горбали"},"nodes":[{"lat":49.963421,"lon":25.1199}]},{"ua":{"name":"Видра"},"ru":{"name":"Выдра"},"nodes":[{"lat":49.9628198,"lon":25.1754457}]},{"ua":{"name":"Новичина"},"ru":{"name":"Новичина"},"nodes":[{"lat":49.96273,"lon":25.10994}]},{"ua":{"name":"Ясенів"},"ru":{"name":"Ясенов"},"nodes":[{"lat":49.962036,"lon":25.04048}]},{"ua":{"name":"Павлики"},"ru":{"name":"Павлики"},"nodes":[{"lat":49.963337,"lon":24.872238}]},{"ua":{"name":"Ямпіль","old_name":"Янушпіль"},"ru":{"name":"Ямполь","old_name":"Янушпіль"},"nodes":[{"lat":49.9562165,"lon":26.2274578}]},{"ua":{"name":"Тріщуки"},"ru":{"name":"Трещуки"},"nodes":[{"lat":49.9631218,"lon":25.0815506}]},{"ua":{"name":"Окіп"},"ru":{"name":"Окоп"},"nodes":[{"lat":49.96136,"lon":26.52237}]},{"ua":{"name":"Ожидів"},"ru":{"name":"Ожидов"},"nodes":[{"lat":49.960262,"lon":24.814713}]},{"ua":{"name":"Залісці"},"ru":{"name":"Залесцы"},"nodes":[{"lat":49.96067,"lon":25.63728}]},{"ua":{"name":"Загірці"},"ru":{"name":"Загорцы"},"nodes":[{"lat":49.959106,"lon":24.977854}]},{"ua":{"name":"Влашанівка"},"ru":{"name":"Влашановка"},"nodes":[{"lat":49.95998,"lon":26.869471}]},{"ua":{"name":"Сохужинці"},"ru":{"name":"Сохужинцы"},"nodes":[{"lat":49.959641,"lon":26.72974}]},{"ua":{"name":"Попівці"},"ru":{"name":"Поповцы"},"nodes":[{"lat":49.96064,"lon":25.381229}]},{"ua":{"name":"Переліски"},"ru":{"name":"Перелески"},"nodes":[{"lat":49.9601285,"lon":25.1520652}]},{"ua":{"name":"Думниця"},"ru":{"name":"Думница"},"nodes":[{"lat":49.950573,"lon":24.516243}]},{"ua":{"name":"Рокитне"},"ru":{"name":"Ракитное"},"nodes":[{"lat":49.95483,"lon":26.63979}]},{"ua":{"name":"Матвіївці"},"ru":{"name":"Матвеевцы"},"nodes":[{"lat":49.95483,"lon":25.98404}]},{"ua":{"name":"Борщівка"},"ru":{"name":"Борщовка"},"nodes":[{"lat":49.95449,"lon":25.55214}]},{"ua":{"name":"Старі Бейзими"},"ru":{"name":"Старые Бейзимы"},"nodes":[{"lat":49.953461,"lon":26.98208}]},{"ua":{"name":"Паньківці"},"ru":{"name":"Паньковцы"},"nodes":[{"lat":49.95277,"lon":25.268209}]},{"ua":{"name":"Миклаші"},"ru":{"name":"Миклаши"},"nodes":[{"lat":49.951401,"lon":26.35758}]},{"ua":{"name":"Теребежі"},"ru":{"name":"Теребежи"},"nodes":[{"lat":49.9473063,"lon":25.0486596}]},{"ua":{"name":"Марківці"},"ru":{"name":"Марковцы"},"nodes":[{"lat":49.94865,"lon":26.934361}]},{"ua":{"name":"Великий Кунинець"},"ru":{"name":"Великий Кунинец"},"nodes":[{"lat":49.9580732,"lon":25.7473561}]},{"ua":{"name":"Горбанівка"},"ru":{"name":"Горбановка"},"nodes":[{"lat":49.948353,"lon":25.373335}]},{"ua":{"name":"Крутнів"},"ru":{"name":"Крутнев"},"nodes":[{"lat":49.9446749,"lon":25.4297188}]},{"ua":{"name":"Журатин"},"ru":{"name":"Журатин"},"nodes":[{"lat":49.943741,"lon":24.599823}]},{"ua":{"name":"Сади"},"ru":{"name":"Сады"},"nodes":[{"lat":49.9506703,"lon":25.069386}]},{"ua":{"name":"Волуйки"},"ru":{"name":"Волуйки"},"nodes":[{"lat":49.945057,"lon":24.881533}]},{"ua":{"name":"Христівка"},"ru":{"name":"Христевка"},"nodes":[{"lat":49.94453,"lon":26.685789}]},{"ua":{"name":"Семенів"},"ru":{"name":"Семёнов"},"nodes":[{"lat":49.94453,"lon":26.40152}]},{"ua":{"name":"Паньківці"},"ru":{"name":"Паньковцы"},"nodes":[{"lat":49.944191,"lon":26.1842}]},{"ua":{"name":"Підкамінь"},"ru":{"name":"Подкамень"},"nodes":[{"lat":49.9452145,"lon":25.318681}]},{"ua":{"name":"Циків"},"ru":{"name":"Циков"},"nodes":[{"lat":49.951824,"lon":24.919592}]},{"ua":{"name":"Дудин"},"ru":{"name":"Дудин"},"nodes":[{"lat":49.943779,"lon":25.410286}]},{"ua":{"name":"Яблунівка"},"ru":{"name":"Яблоновка"},"nodes":[{"lat":49.9433371,"lon":25.2806893}]},{"ua":{"name":"Михайлівка"},"ru":{"name":"Михайловка"},"nodes":[{"lat":49.9411,"lon":26.13682}]},{"ua":{"name":"Якимівці"},"ru":{"name":"Акимовцы"},"nodes":[{"lat":49.9411,"lon":26.04961}]},{"ua":{"name":"Закомар’я"},"ru":{"name":"Закомарье"},"nodes":[{"lat":49.942661,"lon":24.761997}]},{"ua":{"name":"Стрихалюки"},"ru":{"name":"Стрихалюки"},"nodes":[{"lat":49.940788,"lon":25.3034479}]},{"ua":{"name":"Підгірці"},"ru":{"name":"Подгорцы"},"nodes":[{"lat":49.940411,"lon":24.98497}]},{"ua":{"name":"Теребежі"},"ru":{"name":"Теребежи"},"nodes":[{"lat":49.947319,"lon":24.899588}]},{"ua":{"name":"Романів"},"ru":{"name":"Романов"},"nodes":[{"lat":49.940071,"lon":26.55121}]},{"ua":{"name":"Гриньківці"},"ru":{"name":"Гриньковцы"},"nodes":[{"lat":49.93938,"lon":26.0091}]},{"ua":{"name":"Воробіївка"},"ru":{"name":"Воробиевка"},"nodes":[{"lat":49.938702,"lon":26.249424}]},{"ua":{"name":"Загірці"},"ru":{"name":"Загорцы"},"nodes":[{"lat":49.93801,"lon":26.12103}]},{"ua":{"name":"Норилів"},"ru":{"name":"Норилов"},"nodes":[{"lat":49.9421183,"lon":26.2332039}]},{"ua":{"name":"Сторонибаби"},"ru":{"name":"Сторонибабы"},"nodes":[{"lat":49.935951,"lon":24.637871}]},{"ua":{"name":"Дунів"},"ru":{"name":"Дунев"},"nodes":[{"lat":49.935482,"lon":24.519051}]},{"ua":{"name":"Дідківці"},"ru":{"name":"Дедковцы"},"nodes":[{"lat":49.9356944,"lon":26.213297}]},{"ua":{"name":"Нем’яч"},"ru":{"name":"Немяч"},"nodes":[{"lat":49.933876,"lon":25.372379}]},{"ua":{"name":"Великі Вікнини"},"ru":{"name":"Великие Окнины"},"nodes":[{"lat":49.93389,"lon":25.86456}]},{"ua":{"name":"Погорільці"},"ru":{"name":"Погорельцы"},"nodes":[{"lat":49.932522,"lon":26.30711}]},{"ua":{"name":"Татаринці"},"ru":{"name":"Татаринцы"},"nodes":[{"lat":49.93149,"lon":26.04481}]},{"ua":{"name":"Підлисся"},"ru":{"name":"Подлисье"},"nodes":[{"lat":49.933105,"lon":24.822783}]},{"ua":{"name":"Тернавка"},"ru":{"name":"Тернавка"},"nodes":[{"lat":49.929771,"lon":26.754459}]},{"ua":{"name":"Жарків"},"ru":{"name":"Жарков"},"nodes":[{"lat":49.9295592,"lon":25.1153884}]},{"ua":{"name":"Кудирявці"},"ru":{"name":"Кудырявцы"},"nodes":[{"lat":49.927498,"lon":24.504669}]},{"ua":{"name":"Денисівка"},"ru":{"name":"Денисовка"},"nodes":[{"lat":49.927021,"lon":26.4592}]},{"ua":{"name":"Літовище"},"ru":{"name":"Литовище"},"nodes":[{"lat":49.925896,"lon":25.2310187}]},{"ua":{"name":"Малі Вікнини"},"ru":{"name":"Малые Окнины"},"nodes":[{"lat":49.92565,"lon":25.89684}]},{"ua":{"name":"Кривчики"},"ru":{"name":"Кривчики"},"nodes":[{"lat":49.9258833,"lon":25.8000596}]},{"ua":{"name":"Нове Село"},"ru":{"name":"Новое Село"},"nodes":[{"lat":49.924961,"lon":26.845779}]},{"ua":{"name":"Дзвиняча"},"ru":{"name":"Дзвиняча"},"nodes":[{"lat":49.925866,"lon":25.6579351}]},{"ua":{"name":"Утішків"},"ru":{"name":"Утешков"},"nodes":[{"lat":49.925129,"lon":24.66514}]},{"ua":{"name":"Острів"},"ru":{"name":"Остров"},"nodes":[{"lat":49.9262486,"lon":24.5940061}]},{"ua":{"name":"Малинище"},"ru":{"name":"Малинище"},"nodes":[{"lat":49.923275,"lon":25.264359}]},{"ua":{"name":"Лопушне"},"ru":{"name":"Лопушное"},"nodes":[{"lat":49.92222,"lon":25.46734}]},{"ua":{"name":"Гавареччина"},"ru":{"name":"Гаваретчина"},"nodes":[{"lat":49.919228,"lon":24.884085}]},{"ua":{"name":"Мала Медведівка"},"ru":{"name":"Малая Медведевка"},"nodes":[{"lat":49.918781,"lon":26.9426}]},{"ua":{"name":"Кузьминці"},"ru":{"name":"Кузьминцы"},"nodes":[{"lat":49.918442,"lon":26.63052}]},{"ua":{"name":"Борщівка"},"ru":{"name":"Борщовка"},"nodes":[{"lat":49.91844,"lon":25.94971}]},{"ua":{"name":"Голубиця"},"ru":{"name":"Голубица"},"nodes":[{"lat":49.9191794,"lon":25.1680955}]},{"ua":{"name":"Гутище"},"ru":{"name":"Гутище"},"nodes":[{"lat":49.918442,"lon":24.94721}]},{"ua":{"name":"Великі Пузирки"},"ru":{"name":"Великие Пузырьки"},"nodes":[{"lat":49.918098,"lon":26.933331}]},{"ua":{"name":"Розтоки"},"ru":{"name":"Ростоки"},"nodes":[{"lat":49.9181,"lon":25.5106}]},{"ua":{"name":"Чорний Ліс"},"ru":{"name":"Чёрный Лес"},"nodes":[{"lat":49.9208596,"lon":25.4159093}]},{"ua":{"name":"Бережинці"},"ru":{"name":"Бережинцы"},"nodes":[{"lat":49.913975,"lon":26.517429}]},{"ua":{"name":"Човгузів"},"ru":{"name":"Човгузов"},"nodes":[{"lat":49.913631,"lon":26.376801}]},{"ua":{"name":"Паликорови"},"ru":{"name":"Паликоровы"},"nodes":[{"lat":49.912949,"lon":25.338249}]},{"ua":{"name":"Петричі"},"ru":{"name":"Петричи"},"nodes":[{"lat":49.912312,"lon":24.713707}]},{"ua":{"name":"В’язовець"},"ru":{"name":"Вязовец"},"nodes":[{"lat":49.9139256,"lon":26.1846198}]},{"ua":{"name":"Сморшки"},"ru":{"name":"Сморшки"},"nodes":[{"lat":49.912258,"lon":26.689569}]},{"ua":{"name":"Безброди"},"ru":{"name":"Безброды"},"nodes":[{"lat":49.9222537,"lon":24.5486944}]},{"ua":{"name":"Красне"},"ru":{"name":"Красное"},"nodes":[{"lat":49.9125099,"lon":24.608186}]},{"ua":{"name":"Розваж"},"ru":{"name":"Розваж"},"nodes":[{"lat":49.911228,"lon":24.797859}]},{"ua":{"name":"Москалівка"},"ru":{"name":"Москалевка"},"nodes":[{"lat":49.908829,"lon":26.27174}]},{"ua":{"name":"Ридомиль"},"ru":{"name":"Рыдомиль"},"nodes":[{"lat":49.90848,"lon":25.59643}]},{"ua":{"name":"Вовківці"},"ru":{"name":"Волковцы"},"nodes":[{"lat":49.907799,"lon":26.39637}]},{"ua":{"name":"Юськівці"},"ru":{"name":"Юськовцы"},"nodes":[{"lat":49.90711,"lon":26.12515}]},{"ua":{"name":"Котюжини"},"ru":{"name":"Котюжины"},"nodes":[{"lat":49.9050578,"lon":25.8518674}]},{"ua":{"name":"Данилівка"},"ru":{"name":"Даниловка"},"nodes":[{"lat":49.9139807,"lon":26.4628638}]},{"ua":{"name":"Новосеменів"},"ru":{"name":"Новосемёнов"},"nodes":[{"lat":49.9044749,"lon":26.429891}]},{"ua":{"name":"Калинівка"},"ru":{"name":"Калиновка"},"nodes":[{"lat":49.9070926,"lon":26.5128459}]},{"ua":{"name":"Куткір"},"ru":{"name":"Куткор"},"nodes":[{"lat":49.905392,"lon":24.55341}]},{"ua":{"name":"Грабово"},"ru":{"name":"Грабово"},"nodes":[{"lat":49.905048,"lon":24.95064}]},{"ua":{"name":"Поляхова","old_name":"Поляхове"},"ru":{"name":"Поляхово","old_name":"Поляхове"},"nodes":[{"lat":49.904709,"lon":26.591721}]},{"ua":{"name":"Свириди"},"ru":{"name":"Свириды"},"nodes":[{"lat":49.904362,"lon":26.88114}]},{"ua":{"name":"Лози"},"ru":{"name":"Лозы"},"nodes":[{"lat":49.9042063,"lon":25.7844138}]},{"ua":{"name":"Вишнівець"},"ru":{"name":"Вишневец"},"nodes":[{"lat":49.90162,"lon":25.75127}]},{"ua":{"name":"Рідка"},"ru":{"name":"Редкая"},"nodes":[{"lat":49.905106,"lon":26.534988}]},{"ua":{"name":"Довгалівка"},"ru":{"name":"Довгалевка"},"nodes":[{"lat":49.8932755,"lon":26.2788682}]},{"ua":{"name":"Краснолука"},"ru":{"name":"Краснолука"},"nodes":[{"lat":49.89956,"lon":26.06369}]},{"ua":{"name":"Стиборівка"},"ru":{"name":"Стыборовка"},"nodes":[{"lat":49.899559,"lon":25.31181}]},{"ua":{"name":"Бужок"},"ru":{"name":"Бужок"},"nodes":[{"lat":49.8957505,"lon":24.8200127}]},{"ua":{"name":"Білий Камінь"},"ru":{"name":"Белый Камень"},"nodes":[{"lat":49.8961704,"lon":24.8358088}]},{"ua":{"name":"Пеняки"},"ru":{"name":"Пеняки"},"nodes":[{"lat":49.896809,"lon":25.184099}]},{"ua":{"name":"Бодаки"},"ru":{"name":"Бодаки"},"nodes":[{"lat":49.89612,"lon":25.80998}]},{"ua":{"name":"Маневе"},"ru":{"name":"Маневое"},"nodes":[{"lat":49.8950322,"lon":25.8725712}]},{"ua":{"name":"Ставок"},"ru":{"name":"Ставок"},"nodes":[{"lat":49.8936112,"lon":26.21784}]},{"ua":{"name":"Передмірка"},"ru":{"name":"Передмирка"},"nodes":[{"lat":49.89372,"lon":25.89752}]},{"ua":{"name":"Острівчик-Пильний"},"ru":{"name":"Островчик-Пыльный"},"nodes":[{"lat":49.893719,"lon":24.72233}]},{"ua":{"name":"Васьківчики"},"ru":{"name":"Васьковчики"},"nodes":[{"lat":49.893028,"lon":26.76956}]},{"ua":{"name":"Грибова"},"ru":{"name":"Грибова"},"nodes":[{"lat":49.892,"lon":26.11107}]},{"ua":{"name":"Старий Вишнівець"},"ru":{"name":"Старый Вишневец"},"nodes":[{"lat":49.89166,"lon":25.75401}]},{"ua":{"name":"Хомець"},"ru":{"name":"Хомец"},"nodes":[{"lat":49.891548,"lon":24.94825}]},{"ua":{"name":"Шишківці"},"ru":{"name":"Шишковцы"},"nodes":[{"lat":49.890846,"lon":25.257111}]},{"ua":{"name":"Ушня"},"ru":{"name":"Ушня"},"nodes":[{"lat":49.890568,"lon":24.91947}]},{"ua":{"name":"Велика Медведівка"},"ru":{"name":"Великая Медведевка"},"nodes":[{"lat":49.890289,"lon":26.96423}]},{"ua":{"name":"Тарасівка"},"ru":{"name":"Тарасовка"},"nodes":[{"lat":49.888569,"lon":26.90415}]},{"ua":{"name":"Мармузовичі","old_name":"Андріївка"},"ru":{"name":"Мармузовичи","old_name":"Андріївка"},"nodes":[{"lat":49.8882183,"lon":24.6327783}]},{"ua":{"name":"Побіч"},"ru":{"name":"Побоч"},"nodes":[{"lat":49.890293,"lon":24.964476}]},{"ua":{"name":"Кучманівка"},"ru":{"name":"Кучмановка"},"nodes":[{"lat":49.887199,"lon":26.716}]},{"ua":{"name":"Волиця"},"ru":{"name":"Волица"},"nodes":[{"lat":49.8873597,"lon":25.48711}]},{"ua":{"name":"Борсуки"},"ru":{"name":"Барсуки"},"nodes":[{"lat":49.88651,"lon":25.98335}]},{"ua":{"name":"Мала Вільшанка"},"ru":{"name":"Малая Ольшанка"},"nodes":[{"lat":49.879922,"lon":24.6436577}]},{"ua":{"name":"Кутище"},"ru":{"name":"Кутище"},"nodes":[{"lat":49.8852924,"lon":25.3645761}]},{"ua":{"name":"Нападівка"},"ru":{"name":"Нападовка"},"nodes":[{"lat":49.8849352,"lon":26.0336626}]},{"ua":{"name":"Снігурівка"},"ru":{"name":"Снегуровка"},"nodes":[{"lat":49.88479,"lon":25.88173}]},{"ua":{"name":"Велика Горянка"},"ru":{"name":"Великая Горянка"},"nodes":[{"lat":49.88445,"lon":25.49584}]},{"ua":{"name":"Панасівка"},"ru":{"name":"Панасовка"},"nodes":[{"lat":49.88411,"lon":25.43026}]},{"ua":{"name":"Загороддя"},"ru":{"name":"Загородье"},"nodes":[{"lat":49.888633,"lon":25.72087}]},{"ua":{"name":"Нова Криворудка"},"ru":{"name":"Новая Криворудка"},"nodes":[{"lat":49.88308,"lon":26.642191}]},{"ua":{"name":"Турівка"},"ru":{"name":"Туровка"},"nodes":[{"lat":49.88308,"lon":26.469839}]},{"ua":{"name":"Антонівка"},"ru":{"name":"Антоновка"},"nodes":[{"lat":49.88274,"lon":26.3332}]},{"ua":{"name":"Черемошня"},"ru":{"name":"Черемошня"},"nodes":[{"lat":49.8931132,"lon":24.8580392}]},{"ua":{"name":"Чепелі"},"ru":{"name":"Чепели"},"nodes":[{"lat":49.8827413,"lon":25.199594}]},{"ua":{"name":"Зелена"},"ru":{"name":"Зелёная"},"nodes":[{"lat":49.881359,"lon":26.799431}]},{"ua":{"name":"Бір"},"ru":{"name":"Бор"},"nodes":[{"lat":49.880768,"lon":24.953941}]},{"ua":{"name":"Федьківці"},"ru":{"name":"Федьковцы"},"nodes":[{"lat":49.88033,"lon":25.72552}]},{"ua":{"name":"Русилів"},"ru":{"name":"Русилов"},"nodes":[{"lat":49.8806188,"lon":24.5867419}]},{"ua":{"name":"Криворудка"},"ru":{"name":"Криворудка"},"nodes":[{"lat":49.87896,"lon":26.698151}]},{"ua":{"name":"Папірня"},"ru":{"name":"Папирня"},"nodes":[{"lat":49.87896,"lon":24.93416}]},{"ua":{"name":"Хотовиця"},"ru":{"name":"Хотовица"},"nodes":[{"lat":49.87862,"lon":25.62836}]},{"ua":{"name":"Бутин"},"ru":{"name":"Бутин"},"nodes":[{"lat":49.8800642,"lon":25.6823775}]},{"ua":{"name":"Пихтії"},"ru":{"name":"Пыхтии"},"nodes":[{"lat":49.87759,"lon":26.99959}]},{"ua":{"name":"Мишківці"},"ru":{"name":"Мышковцы"},"nodes":[{"lat":49.8755527,"lon":25.7053121}]},{"ua":{"name":"Скварява"},"ru":{"name":"Скварява"},"nodes":[{"lat":49.876175,"lon":24.750751}]},{"ua":{"name":"Кинахівці"},"ru":{"name":"Кинаховцы"},"nodes":[{"lat":49.87587,"lon":25.69222}]},{"ua":{"name":"Мала Горянка"},"ru":{"name":"Малая Горянка"},"nodes":[{"lat":49.87484,"lon":25.536}]},{"ua":{"name":"Сасів"},"ru":{"name":"Сасов"},"nodes":[{"lat":49.872814,"lon":24.945625}]},{"ua":{"name":"Мала Снігурівка"},"ru":{"name":"Малая Снегуровка"},"nodes":[{"lat":49.87312,"lon":25.88413}]},{"ua":{"name":"Гончарівка"},"ru":{"name":"Гончаровка"},"nodes":[{"lat":49.873726,"lon":24.783787}]},{"ua":{"name":"Мала Салиха"},"ru":{"name":"Малая Салиха"},"nodes":[{"lat":49.87244,"lon":26.863979}]},{"ua":{"name":"Опаки"},"ru":{"name":"Опаки"},"nodes":[{"lat":49.87244,"lon":25.05261}]},{"ua":{"name":"Волиця"},"ru":{"name":"Волица"},"nodes":[{"lat":49.872089,"lon":26.587601}]},{"ua":{"name":"Красівка"},"ru":{"name":"Красовка"},"nodes":[{"lat":49.87175,"lon":26.963539}]},{"ua":{"name":"Пісок"},"ru":{"name":"Песок"},"nodes":[{"lat":49.87175,"lon":24.959221}]},{"ua":{"name":"Поляни"},"ru":{"name":"Поляны"},"nodes":[{"lat":49.87106,"lon":25.66681}]},{"ua":{"name":"Млинівці"},"ru":{"name":"Млыновцы"},"nodes":[{"lat":49.8660134,"lon":25.6444143}]},{"ua":{"name":"Кривовілька"},"ru":{"name":"Кривовилька"},"nodes":[{"lat":49.8698219,"lon":26.4090261}]},{"ua":{"name":"Яснище"},"ru":{"name":"Яснище"},"nodes":[{"lat":49.868343,"lon":25.354809}]},{"ua":{"name":"Скнилів"},"ru":{"name":"Скнилов"},"nodes":[{"lat":49.867752,"lon":24.630808}]},{"ua":{"name":"Великі Кусківці"},"ru":{"name":"Великие Кусковцы"},"nodes":[{"lat":49.8713422,"lon":25.9490415}]},{"ua":{"name":"Вербівчик"},"ru":{"name":"Вербивчик"},"nodes":[{"lat":49.873169,"lon":25.320646}]},{"ua":{"name":"Червона Дубина"},"ru":{"name":"Червоная Дубина"},"nodes":[{"lat":49.86694,"lon":26.504169}]},{"ua":{"name":"Велика Салиха"},"ru":{"name":"Великая Салиха"},"nodes":[{"lat":49.8666,"lon":26.89316}]},{"ua":{"name":"Загір’я"},"ru":{"name":"Загорье"},"nodes":[{"lat":49.8665867,"lon":25.4166809}]},{"ua":{"name":"Новоставці"},"ru":{"name":"Новоставцы"},"nodes":[{"lat":49.864731,"lon":26.397488}]},{"ua":{"name":"Руда-Колтівська"},"ru":{"name":"Руда-Колтовская"},"nodes":[{"lat":49.863537,"lon":25.016592}]},{"ua":{"name":"Орихівчик"},"ru":{"name":"Ореховчик"},"nodes":[{"lat":49.8616857,"lon":25.3156331}]},{"ua":{"name":"Серетець"},"ru":{"name":"Серетец"},"nodes":[{"lat":49.86282,"lon":25.38529}]},{"ua":{"name":"Бакоти"},"ru":{"name":"Бакоты"},"nodes":[{"lat":49.8597381,"lon":25.6439804}]},{"ua":{"name":"Верхобуж"},"ru":{"name":"Верхобуж"},"nodes":[{"lat":49.869305,"lon":25.089037}]},{"ua":{"name":"Трусилівка"},"ru":{"name":"Трусиловка"},"nodes":[{"lat":49.860081,"lon":26.716}]},{"ua":{"name":"Козачки"},"ru":{"name":"Козачки"},"nodes":[{"lat":49.8515679,"lon":26.1644333}]},{"ua":{"name":"Маркопіль"},"ru":{"name":"Маркополь"},"nodes":[{"lat":49.85973,"lon":25.286751}]},{"ua":{"name":"Жуличі"},"ru":{"name":"Жуличи"},"nodes":[{"lat":49.861294,"lon":24.871246}]},{"ua":{"name":"Рублянка"},"ru":{"name":"Рублянка"},"nodes":[{"lat":49.859051,"lon":26.83033}]},{"ua":{"name":"Лідихівка"},"ru":{"name":"Ледыховка"},"nodes":[{"lat":49.859051,"lon":26.51379}]},{"ua":{"name":"Звижень"},"ru":{"name":"Звыжень"},"nodes":[{"lat":49.858505,"lon":25.237341}]},{"ua":{"name":"Гриньки"},"ru":{"name":"Гриньки"},"nodes":[{"lat":49.85802,"lon":26.13167}]},{"ua":{"name":"Балучин"},"ru":{"name":"Балучин"},"nodes":[{"lat":49.8556609,"lon":24.5618304}]},{"ua":{"name":"Чайчинці"},"ru":{"name":"Чайчинцы"},"nodes":[{"lat":49.85561,"lon":25.87418}]},{"ua":{"name":"Синівці"},"ru":{"name":"Синевцы"},"nodes":[{"lat":49.8568764,"lon":25.9752795}]},{"ua":{"name":"Підберізці"},"ru":{"name":"Подберезцы"},"nodes":[{"lat":49.858997,"lon":25.342848}]},{"ua":{"name":"Устечко"},"ru":{"name":"Устечко"},"nodes":[{"lat":49.85252,"lon":25.62218}]},{"ua":{"name":"Стадня"},"ru":{"name":"Стадня"},"nodes":[{"lat":49.851727,"lon":24.693462}]},{"ua":{"name":"Лукавець"},"ru":{"name":"Лукавец"},"nodes":[{"lat":49.850121,"lon":25.17037}]},{"ua":{"name":"Хмелева"},"ru":{"name":"Хмелевая"},"nodes":[{"lat":49.849091,"lon":25.00832}]},{"ua":{"name":"Почапи"},"ru":{"name":"Почапы"},"nodes":[{"lat":49.849091,"lon":24.83597}]},{"ua":{"name":"Бортків"},"ru":{"name":"Бортков"},"nodes":[{"lat":49.8484,"lon":24.63341}]},{"ua":{"name":"Долинівці"},"ru":{"name":"Долиновцы"},"nodes":[{"lat":49.846691,"lon":26.91925}]},{"ua":{"name":"Коров’є"},"ru":{"name":"Коровье"},"nodes":[{"lat":49.8435777,"lon":26.4411109}]},{"ua":{"name":"Малі Кусківці"},"ru":{"name":"Малые Кусковцы"},"nodes":[{"lat":49.846023,"lon":26.0352745}]},{"ua":{"name":"Гнидава"},"ru":{"name":"Гнидава"},"nodes":[{"lat":49.8441164,"lon":25.8270429}]},{"ua":{"name":"Івання"},"ru":{"name":"Иванья"},"nodes":[{"lat":49.8487894,"lon":25.5208376}]},{"ua":{"name":"Колтів"},"ru":{"name":"Колтов"},"nodes":[{"lat":49.845661,"lon":25.052259}]},{"ua":{"name":"Женів"},"ru":{"name":"Женив"},"nodes":[{"lat":49.8451075,"lon":24.5053608}]},{"ua":{"name":"Святець"},"ru":{"name":"Святец"},"nodes":[{"lat":49.84531,"lon":26.30127}]},{"ua":{"name":"Малі Пузирки"},"ru":{"name":"Малые Пузырьки"},"nodes":[{"lat":49.844971,"lon":26.747589}]},{"ua":{"name":"Теофіполь"},"ru":{"name":"Теофиполь"},"nodes":[{"lat":49.84463,"lon":26.41525}]},{"ua":{"name":"Осники"},"ru":{"name":"Осники"},"nodes":[{"lat":49.84325,"lon":26.17973}]},{"ua":{"name":"Межигори"},"ru":{"name":"Межигоры"},"nodes":[{"lat":49.84222,"lon":25.283661}]},{"ua":{"name":"Заруддя"},"ru":{"name":"Зарудье"},"nodes":[{"lat":49.841881,"lon":26.54434}]},{"ua":{"name":"Ледянка"},"ru":{"name":"Ледянка"},"nodes":[{"lat":49.841541,"lon":26.68339}]},{"ua":{"name":"Волиця"},"ru":{"name":"Волица"},"nodes":[{"lat":49.84119,"lon":26.05099}]},{"ua":{"name":"Лисогірка"},"ru":{"name":"Лысогорка"},"nodes":[{"lat":49.840851,"lon":26.196899}]},{"ua":{"name":"Федорівка"},"ru":{"name":"Фёдоровка"},"nodes":[{"lat":49.840511,"lon":26.7239}]},{"ua":{"name":"Малі Юначки"},"ru":{"name":"Малые Юначки"},"nodes":[{"lat":49.839821,"lon":26.93401}]},{"ua":{"name":"Очеретне"},"ru":{"name":"Очеретное"},"nodes":[{"lat":49.83948,"lon":25.58922}]},{"ua":{"name":"Копані"},"ru":{"name":"Копани"},"nodes":[{"lat":49.83036,"lon":24.965935}]},{"ua":{"name":"Коханівка"},"ru":{"name":"Кохановка"},"nodes":[{"lat":49.83879,"lon":25.81547}]},{"ua":{"name":"Зашляхом"},"ru":{"name":"Зашляхом"},"nodes":[{"lat":49.8381632,"lon":25.7611916}]},{"ua":{"name":"Старий Олексинець"},"ru":{"name":"Старый Алексинец"},"nodes":[{"lat":49.83845,"lon":25.55145}]},{"ua":{"name":"Новий Олексинець"},"ru":{"name":"Новый Алексинец"},"nodes":[{"lat":49.8381,"lon":25.4924}]},{"ua":{"name":"Батьків"},"ru":{"name":"Батьков"},"nodes":[{"lat":49.8381,"lon":25.23148}]},{"ua":{"name":"Ратищі"},"ru":{"name":"Ратыщи"},"nodes":[{"lat":49.8377112,"lon":25.3080574}]},{"ua":{"name":"Оришківці"},"ru":{"name":"Оришковцы"},"nodes":[{"lat":49.8261168,"lon":26.1265908}]},{"ua":{"name":"Закриниччя"},"ru":{"name":"Закриничье"},"nodes":[{"lat":49.836391,"lon":26.84269}]},{"ua":{"name":"Городилів"},"ru":{"name":"Городилов"},"nodes":[{"lat":49.835735,"lon":24.896915}]},{"ua":{"name":"Хильчиці"},"ru":{"name":"Хильчицы"},"nodes":[{"lat":49.833641,"lon":24.855881}]},{"ua":{"name":"Єлиховичі"},"ru":{"name":"Елиховичи"},"nodes":[{"lat":49.833065,"lon":24.926317}]},{"ua":{"name":"Троянівка"},"ru":{"name":"Трояновка"},"nodes":[{"lat":49.830891,"lon":26.49044}]},{"ua":{"name":"Кругів"},"ru":{"name":"Кругов"},"nodes":[{"lat":49.830891,"lon":25.125389}]},{"ua":{"name":"Волиця-Польова"},"ru":{"name":"Волица-Полевая"},"nodes":[{"lat":49.830551,"lon":26.60717}]},{"ua":{"name":"Раковець"},"ru":{"name":"Раковец"},"nodes":[{"lat":49.82952,"lon":25.7159}]},{"ua":{"name":"Княже"},"ru":{"name":"Княже"},"nodes":[{"lat":49.828491,"lon":24.799919}]},{"ua":{"name":"Строки"},"ru":{"name":"Строки"},"nodes":[{"lat":49.828152,"lon":26.51791}]},{"ua":{"name":"Обертасів"},"ru":{"name":"Обертасов"},"nodes":[{"lat":49.82896,"lon":25.017344}]},{"ua":{"name":"Чеснівський Раковець"},"ru":{"name":"Чесновский Раковец"},"nodes":[{"lat":49.8307227,"lon":25.6702761}]},{"ua":{"name":"Піщане"},"ru":{"name":"Песчаное"},"nodes":[{"lat":49.8262764,"lon":25.2611844}]},{"ua":{"name":"Кунча"},"ru":{"name":"Кунча"},"nodes":[{"lat":49.826771,"lon":26.371651}]},{"ua":{"name":"Башуки"},"ru":{"name":"Башуки"},"nodes":[{"lat":49.8234869,"lon":25.5302909}]},{"ua":{"name":"Великі Юначки"},"ru":{"name":"Великие Юначки"},"nodes":[{"lat":49.825741,"lon":26.95805}]},{"ua":{"name":"Бережанка"},"ru":{"name":"Бережанка"},"nodes":[{"lat":49.8254,"lon":26.00807}]},{"ua":{"name":"Діброва"},"ru":{"name":"Диброва"},"nodes":[{"lat":49.82506,"lon":25.78663}]},{"ua":{"name":"Бонишин"},"ru":{"name":"Бонишин"},"nodes":[{"lat":49.820751,"lon":24.831463}]},{"ua":{"name":"Якимівці"},"ru":{"name":"Акимовцы"},"nodes":[{"lat":49.823341,"lon":26.792219}]},{"ua":{"name":"Молотків"},"ru":{"name":"Молотков"},"nodes":[{"lat":49.822651,"lon":26.187969}]},{"ua":{"name":"Михнівка"},"ru":{"name":"Михновка"},"nodes":[{"lat":49.8205328,"lon":26.441885}]},{"ua":{"name":"Мартишківці"},"ru":{"name":"Мартышковцы"},"nodes":[{"lat":49.8197085,"lon":25.9490577}]},{"ua":{"name":"Гаї-Розтоцькі"},"ru":{"name":"Гаи-Растоцкие"},"nodes":[{"lat":49.8196321,"lon":25.4073538}]},{"ua":{"name":"Манаїв"},"ru":{"name":"Манаев"},"nodes":[{"lat":49.8171071,"lon":25.2146881}]},{"ua":{"name":"Зозулі"},"ru":{"name":"Зозули"},"nodes":[{"lat":49.8198033,"lon":24.9458172}]},{"ua":{"name":"Гаї-за-Рудою"},"ru":{"name":"Гаи-за-Рудою"},"nodes":[{"lat":49.8264078,"lon":25.3876652}]},{"ua":{"name":"Тріски"},"ru":{"name":"Триски"},"nodes":[{"lat":49.815102,"lon":26.789129}]},{"ua":{"name":"Монастирок"},"ru":{"name":"Монастырёк"},"nodes":[{"lat":49.813728,"lon":24.996639}]},{"ua":{"name":"Чистопади"},"ru":{"name":"Чистопады"},"nodes":[{"lat":49.8138765,"lon":25.3487295}]},{"ua":{"name":"Мар’янівка"},"ru":{"name":"Марьяновка"},"nodes":[{"lat":49.811668,"lon":26.23089}]},{"ua":{"name":"Вербовець"},"ru":{"name":"Вербовец"},"nodes":[{"lat":49.81098,"lon":25.89958}]},{"ua":{"name":"Антоніни"},"ru":{"name":"Антонины"},"nodes":[{"lat":49.81029,"lon":26.86466}]},{"ua":{"name":"Мала Білка"},"ru":{"name":"Малая Белка"},"nodes":[{"lat":49.81029,"lon":25.96962}]},{"ua":{"name":"Гриценки"},"ru":{"name":"Гриценки"},"nodes":[{"lat":49.809608,"lon":26.76544}]},{"ua":{"name":"Кременчуки"},"ru":{"name":"Кременчуки"},"nodes":[{"lat":49.809261,"lon":26.97521}]},{"ua":{"name":"Дмитрівка"},"ru":{"name":"Дмитровка"},"nodes":[{"lat":49.808231,"lon":26.34659}]},{"ua":{"name":"Лісова Волиця"},"ru":{"name":"Лесовая Волица"},"nodes":[{"lat":49.807549,"lon":26.94775}]},{"ua":{"name":"Дерев’янки"},"ru":{"name":"Деревянки"},"nodes":[{"lat":49.80624,"lon":25.080446}]},{"ua":{"name":"Олійники"},"ru":{"name":"Олейники"},"nodes":[{"lat":49.807201,"lon":26.56426}]},{"ua":{"name":"Іванківці"},"ru":{"name":"Иванковцы"},"nodes":[{"lat":49.8072,"lon":26.13133}]},{"ua":{"name":"Гніздичне"},"ru":{"name":"Гнездычно"},"nodes":[{"lat":49.8050575,"lon":25.6413809}]},{"ua":{"name":"Червоне"},"ru":{"name":"Червоное"},"nodes":[{"lat":49.804855,"lon":24.76955}]},{"ua":{"name":"Золочівка"},"ru":{"name":"Золочевка"},"nodes":[{"lat":49.807793,"lon":24.928284}]},{"ua":{"name":"Великі Орлинці"},"ru":{"name":"Великие Орлинцы"},"nodes":[{"lat":49.804798,"lon":26.902769}]},{"ua":{"name":"Ясенівці"},"ru":{"name":"Ясеновцы"},"nodes":[{"lat":49.80439,"lon":24.840992}]},{"ua":{"name":"Перегноїв"},"ru":{"name":"Перегноев"},"nodes":[{"lat":49.8067874,"lon":24.576685}]},{"ua":{"name":"Жуківці"},"ru":{"name":"Жуковцы"},"nodes":[{"lat":49.7986405,"lon":26.0100829}]},{"ua":{"name":"Мала Карначівка"},"ru":{"name":"Малая Карначевка"},"nodes":[{"lat":49.80308,"lon":26.08429}]},{"ua":{"name":"Бліх"},"ru":{"name":"Блих"},"nodes":[{"lat":49.80274,"lon":25.42889}]},{"ua":{"name":"Залізці"},"ru":{"name":"Заложцы"},"nodes":[{"lat":49.8022871,"lon":25.3836982}]},{"ua":{"name":"Нище"},"ru":{"name":"Нище"},"nodes":[{"lat":49.80274,"lon":25.11131}]},{"ua":{"name":"Решнівка"},"ru":{"name":"Решнёвка"},"nodes":[{"lat":49.8018832,"lon":26.7063984}]},{"ua":{"name":"Луг"},"ru":{"name":"Луг"},"nodes":[{"lat":49.80563,"lon":24.951571}]},{"ua":{"name":"Велика Білка"},"ru":{"name":"Великая Белка"},"nodes":[{"lat":49.80102,"lon":25.95898}]},{"ua":{"name":"Немиринці"},"ru":{"name":"Немиринцы"},"nodes":[{"lat":49.800339,"lon":26.247709}]},{"ua":{"name":"Тростянець"},"ru":{"name":"Тростянец"},"nodes":[{"lat":49.798855,"lon":25.045614}]},{"ua":{"name":"Гарбузів"},"ru":{"name":"Гарбузов"},"nodes":[{"lat":49.79862,"lon":25.20813}]},{"ua":{"name":"Решнівка"},"ru":{"name":"Решневка"},"nodes":[{"lat":49.79828,"lon":25.80586}]},{"ua":{"name":"Мильне"},"ru":{"name":"Мильно"},"nodes":[{"lat":49.8003693,"lon":25.471188}]},{"ua":{"name":"Корчунок"},"ru":{"name":"Корчунок"},"nodes":[{"lat":49.7930661,"lon":25.0904855}]},{"ua":{"name":"Велика Вільшаниця"},"ru":{"name":"Великая Ольшаница"},"nodes":[{"lat":49.801105,"lon":24.668325}]},{"ua":{"name":"Козаки"},"ru":{"name":"Казаки"},"nodes":[{"lat":49.797287,"lon":24.987823}]},{"ua":{"name":"Новоселище"},"ru":{"name":"Новоселище"},"nodes":[{"lat":49.796314,"lon":25.071722}]},{"ua":{"name":"Юзіно"},"ru":{"name":"Юзино"},"nodes":[{"lat":49.795528,"lon":26.81591}]},{"ua":{"name":"Воронівці"},"ru":{"name":"Вороновцы"},"nodes":[{"lat":49.794842,"lon":26.27655}]},{"ua":{"name":"Хоми"},"ru":{"name":"Хомы"},"nodes":[{"lat":49.7926809,"lon":25.590166}]},{"ua":{"name":"Залісся"},"ru":{"name":"Залесье"},"nodes":[{"lat":49.793064,"lon":24.827209}]},{"ua":{"name":"Ільківці"},"ru":{"name":"Ильковцы"},"nodes":[{"lat":49.793468,"lon":26.300579}]},{"ua":{"name":"Перепельники"},"ru":{"name":"Перепельники"},"nodes":[{"lat":49.79362,"lon":25.1611979}]},{"ua":{"name":"Ключівка"},"ru":{"name":"Ключовка"},"nodes":[{"lat":49.792439,"lon":26.913071}]},{"ua":{"name":"Колки"},"ru":{"name":"Колки"},"nodes":[{"lat":49.791069,"lon":26.60099}]},{"ua":{"name":"Підліски","old_name":"Ленінське"},"ru":{"name":"Подлески","old_name":"Ленинское"},"nodes":[{"lat":49.790722,"lon":26.404949}]},{"ua":{"name":"Ванжулів"},"ru":{"name":"Ванжулов"},"nodes":[{"lat":49.79038,"lon":26.07708}]},{"ua":{"name":"Майдан-Петрівський"},"ru":{"name":"Майдан-Петровский"},"nodes":[{"lat":49.789688,"lon":26.56185}]},{"ua":{"name":"Осовиця"},"ru":{"name":"Осовица"},"nodes":[{"lat":49.789925,"lon":25.071566}]},{"ua":{"name":"Корчівка"},"ru":{"name":"Корчовка"},"nodes":[{"lat":49.789349,"lon":26.658331}]},{"ua":{"name":"Підгородне"},"ru":{"name":"Подгородное"},"nodes":[{"lat":49.790482,"lon":24.920668}]},{"ua":{"name":"Влащинці"},"ru":{"name":"Влащинцы"},"nodes":[{"lat":49.78798,"lon":25.94456}]},{"ua":{"name":"Котюржинці"},"ru":{"name":"Котюржинцы"},"nodes":[{"lat":49.787289,"lon":26.48769}]},{"ua":{"name":"Кривичі"},"ru":{"name":"Кривичи"},"nodes":[{"lat":49.786949,"lon":24.591181}]},{"ua":{"name":"Заруддя"},"ru":{"name":"Зарудье"},"nodes":[{"lat":49.7866,"lon":25.74062}]},{"ua":{"name":"Севрюки"},"ru":{"name":"Севрюки"},"nodes":[{"lat":49.785568,"lon":26.693689}]},{"ua":{"name":"Тростянець"},"ru":{"name":"Тростянец"},"nodes":[{"lat":49.786887,"lon":25.2829161}]},{"ua":{"name":"Новосілки"},"ru":{"name":"Новосёлки"},"nodes":[{"lat":49.7809746,"lon":24.6447602}]},{"ua":{"name":"Карначівка"},"ru":{"name":"Карначевка"},"nodes":[{"lat":49.78317,"lon":25.88482}]},{"ua":{"name":"Олишківці"},"ru":{"name":"Олишковцы"},"nodes":[{"lat":49.78248,"lon":25.71385}]},{"ua":{"name":"Стінка"},"ru":{"name":"Стенка"},"nodes":[{"lat":49.7809989,"lon":24.7342616}]},{"ua":{"name":"Мазів"},"ru":{"name":"Мазов"},"nodes":[{"lat":49.7795973,"lon":24.536715}]},{"ua":{"name":"Лука"},"ru":{"name":"Лука"},"nodes":[{"lat":49.780769,"lon":25.016899}]},{"ua":{"name":"Струтин"},"ru":{"name":"Струтин"},"nodes":[{"lat":49.787872,"lon":24.941841}]},{"ua":{"name":"Шушківці"},"ru":{"name":"Шушковцы"},"nodes":[{"lat":49.7814147,"lon":26.1466799}]},{"ua":{"name":"Кийків"},"ru":{"name":"Кийков"},"nodes":[{"lat":49.7800746,"lon":24.9554402}]},{"ua":{"name":"Вороняки"},"ru":{"name":"Вороняки"},"nodes":[{"lat":49.780548,"lon":24.882128}]},{"ua":{"name":"Огризківці"},"ru":{"name":"Огрызковцы"},"nodes":[{"lat":49.77905,"lon":26.06884}]},{"ua":{"name":"Соколівка"},"ru":{"name":"Соколовка"},"nodes":[{"lat":49.77768,"lon":25.98507}]},{"ua":{"name":"Витківці"},"ru":{"name":"Витковцы"},"nodes":[{"lat":49.7757123,"lon":25.7055197}]},{"ua":{"name":"Гукалівці"},"ru":{"name":"Гукаловцы"},"nodes":[{"lat":49.776668,"lon":25.1695995}]},{"ua":{"name":"Карабіївка"},"ru":{"name":"Карабиевка"},"nodes":[{"lat":49.77631,"lon":26.45199}]},{"ua":{"name":"Кобилля"},"ru":{"name":"Кобылье"},"nodes":[{"lat":49.774157,"lon":25.6050274}]},{"ua":{"name":"Маленки"},"ru":{"name":"Маленки"},"nodes":[{"lat":49.77425,"lon":26.741409}]},{"ua":{"name":"Трудовач"},"ru":{"name":"Трудовач"},"nodes":[{"lat":49.77356,"lon":24.692459}]},{"ua":{"name":"Пахиня"},"ru":{"name":"Пахиня"},"nodes":[{"lat":49.7789246,"lon":25.9025072}]},{"ua":{"name":"Колісець"},"ru":{"name":"Колесец"},"nodes":[{"lat":49.77253,"lon":26.329081}]},{"ua":{"name":"Зарваниця"},"ru":{"name":"Зарваница"},"nodes":[{"lat":49.771839,"lon":24.98016}]},{"ua":{"name":"Лопушани"},"ru":{"name":"Лопушаны"},"nodes":[{"lat":49.7710553,"lon":25.2103443}]},{"ua":{"name":"Великий Лазучин"},"ru":{"name":"Великий Лазучин"},"nodes":[{"lat":49.77047,"lon":26.5107}]},{"ua":{"name":"Червоне"},"ru":{"name":"Червоное"},"nodes":[{"lat":49.7691007,"lon":26.6203963}]},{"ua":{"name":"Вишгородок"},"ru":{"name":"Вышгородок"},"nodes":[{"lat":49.76875,"lon":25.96859}]},{"ua":{"name":"Ренів"},"ru":{"name":"Ренев"},"nodes":[{"lat":49.7681808,"lon":25.3879907}]},{"ua":{"name":"Білокриниця"},"ru":{"name":"Белокриница"},"nodes":[{"lat":49.7678899,"lon":25.2737757}]},{"ua":{"name":"Майдан-Гологірський"},"ru":{"name":"Майдан-Гологорский"},"nodes":[{"lat":49.768021,"lon":24.778088}]},{"ua":{"name":"Кобилеччина"},"ru":{"name":"Кобылеччина"},"nodes":[{"lat":49.76807,"lon":24.95545}]},{"ua":{"name":"Митулин"},"ru":{"name":"Митулин"},"nodes":[{"lat":49.76807,"lon":24.62723}]},{"ua":{"name":"Терешки"},"ru":{"name":"Терешки"},"nodes":[{"lat":49.767719,"lon":26.76544}]},{"ua":{"name":"Манівці"},"ru":{"name":"Маневцы"},"nodes":[{"lat":49.766342,"lon":26.978413}]},{"ua":{"name":"Шили"},"ru":{"name":"Шилы"},"nodes":[{"lat":49.7676917,"lon":25.8478757}]},{"ua":{"name":"Івачів"},"ru":{"name":"Ивачев"},"nodes":[{"lat":49.76704,"lon":25.09483}]},{"ua":{"name":"Словіта"},"ru":{"name":"Словита"},"nodes":[{"lat":49.763088,"lon":24.596704}]},{"ua":{"name":"Буглів"},"ru":{"name":"Буглов"},"nodes":[{"lat":49.76532,"lon":26.06163}]},{"ua":{"name":"Грицики"},"ru":{"name":"Грицики"},"nodes":[{"lat":49.76395,"lon":26.81728}]},{"ua":{"name":"Гаврилівка"},"ru":{"name":"Гавриловка"},"nodes":[{"lat":49.763599,"lon":26.37886}]},{"ua":{"name":"Болязуби"},"ru":{"name":"Болязубы"},"nodes":[{"lat":49.76292,"lon":25.66544}]},{"ua":{"name":"Гологірки"},"ru":{"name":"Гологорки"},"nodes":[{"lat":49.7648258,"lon":24.7132361}]},{"ua":{"name":"Білозірка"},"ru":{"name":"Белозирка"},"nodes":[{"lat":49.7642414,"lon":26.1814411}]},{"ua":{"name":"Підлипці"},"ru":{"name":"Подлипцы"},"nodes":[{"lat":49.761868,"lon":25.053267}]},{"ua":{"name":"Василівка"},"ru":{"name":"Василевка"},"nodes":[{"lat":49.760509,"lon":26.58005}]},{"ua":{"name":"Шимківці"},"ru":{"name":"Шимковцы"},"nodes":[{"lat":49.76051,"lon":25.80139}]},{"ua":{"name":"Малий Лазучин"},"ru":{"name":"Малый Лазучин"},"nodes":[{"lat":49.75948,"lon":26.44375}]},{"ua":{"name":"Нові Терешки","old_name":"Жовтневе"},"ru":{"name":"Нові Терешки","old_name":"Жовтневое"},"nodes":[{"lat":49.758801,"lon":26.75514}]},{"ua":{"name":"Калинівка","old_name":"Чапаєвка"},"ru":{"name":"Калиновка","old_name":"Чапаевка"},"nodes":[{"lat":49.758801,"lon":26.65661}]},{"ua":{"name":"Кульчини"},"ru":{"name":"Кульчины"},"nodes":[{"lat":49.75845,"lon":26.9014}]},{"ua":{"name":"Караїна"},"ru":{"name":"Караина"},"nodes":[{"lat":49.75845,"lon":26.39912}]},{"ua":{"name":"Коростова"},"ru":{"name":"Коростова"},"nodes":[{"lat":49.75845,"lon":26.03039}]},{"ua":{"name":"Оліїв"},"ru":{"name":"Олиев"},"nodes":[{"lat":49.75845,"lon":25.25379}]},{"ua":{"name":"Люлинці"},"ru":{"name":"Люлинцы"},"nodes":[{"lat":49.75708,"lon":26.06747}]},{"ua":{"name":"Колодне"},"ru":{"name":"Колодное"},"nodes":[{"lat":49.75674,"lon":25.74268}]},{"ua":{"name":"Плугів"},"ru":{"name":"Плугов"},"nodes":[{"lat":49.753986,"lon":25.025536}]},{"ua":{"name":"Москалівка"},"ru":{"name":"Москалевка"},"nodes":[{"lat":49.75605,"lon":26.1248}]},{"ua":{"name":"Вовчківці"},"ru":{"name":"Волчковцы"},"nodes":[{"lat":49.754372,"lon":25.124777}]},{"ua":{"name":"Шибена"},"ru":{"name":"Шибена"},"nodes":[{"lat":49.75399,"lon":26.282391}]},{"ua":{"name":"Мала Березовиця"},"ru":{"name":"Малая Березовица"},"nodes":[{"lat":49.75399,"lon":25.56828}]},{"ua":{"name":"Мшанець"},"ru":{"name":"Мшанец"},"nodes":[{"lat":49.7533,"lon":25.47524}]},{"ua":{"name":"Шопки"},"ru":{"name":"Шопки"},"nodes":[{"lat":49.753799,"lon":24.52368}]},{"ua":{"name":"Білоголови"},"ru":{"name":"Белоголовы"},"nodes":[{"lat":49.7535859,"lon":25.3420314}]},{"ua":{"name":"Плиска"},"ru":{"name":"Плиска"},"nodes":[{"lat":49.7462682,"lon":26.0906219}]},{"ua":{"name":"Медисівка"},"ru":{"name":"Медисовка"},"nodes":[{"lat":49.75124,"lon":26.363411}]},{"ua":{"name":"Лопушне"},"ru":{"name":"Лопушное"},"nodes":[{"lat":49.75021,"lon":25.88688}]},{"ua":{"name":"Печеське"},"ru":{"name":"Печеское"},"nodes":[{"lat":49.74987,"lon":26.84063}]},{"ua":{"name":"Ординці"},"ru":{"name":"Ордынцы"},"nodes":[{"lat":49.74987,"lon":26.606831}]},{"ua":{"name":"Іванчани"},"ru":{"name":"Иванчаны"},"nodes":[{"lat":49.74712,"lon":25.616}]},{"ua":{"name":"Дворик"},"ru":{"name":"Дворик"},"nodes":[{"lat":49.746441,"lon":26.68511}]},{"ua":{"name":"Вертелка"},"ru":{"name":"Вертелка"},"nodes":[{"lat":49.74644,"lon":25.43884}]},{"ua":{"name":"Гологори"},"ru":{"name":"Гологоры"},"nodes":[{"lat":49.7524219,"lon":24.7226803}]},{"ua":{"name":"Борщівка"},"ru":{"name":"Борщовка"},"nodes":[{"lat":49.745411,"lon":26.538509}]},{"ua":{"name":"Руда"},"ru":{"name":"Руда"},"nodes":[{"lat":49.74614,"lon":25.0375}]},{"ua":{"name":"Кам’янисте"},"ru":{"name":"Каменистое"},"nodes":[{"lat":49.7452587,"lon":25.1077714}]},{"ua":{"name":"Нетерпинці"},"ru":{"name":"Нетерпинцы"},"nodes":[{"lat":49.7435506,"lon":25.3598448}]},{"ua":{"name":"Коржківці"},"ru":{"name":"Коржковцы"},"nodes":[{"lat":49.74335,"lon":25.91194}]},{"ua":{"name":"Лютарівка"},"ru":{"name":"Лютаровка"},"nodes":[{"lat":49.742321,"lon":26.592751}]},{"ua":{"name":"Печірна"},"ru":{"name":"Печорна"},"nodes":[{"lat":49.7457553,"lon":26.0148575}]},{"ua":{"name":"Зарудечко"},"ru":{"name":"Зарудечко"},"nodes":[{"lat":49.7431037,"lon":25.8193439}]},{"ua":{"name":"Поляни"},"ru":{"name":"Поляны"},"nodes":[{"lat":49.741745,"lon":24.989756}]},{"ua":{"name":"Глинчуки"},"ru":{"name":"Глинчуки"},"nodes":[{"lat":49.7398004,"lon":25.6739193}]},{"ua":{"name":"Коропчик"},"ru":{"name":"Коропчик"},"nodes":[{"lat":49.7405409,"lon":24.893824}]},{"ua":{"name":"Якторів"},"ru":{"name":"Якторов"},"nodes":[{"lat":49.740719,"lon":24.563099}]},{"ua":{"name":"Кульчинки"},"ru":{"name":"Кульчинки"},"nodes":[{"lat":49.739571,"lon":26.93985}]},{"ua":{"name":"Верещаки"},"ru":{"name":"Верещаки"},"nodes":[{"lat":49.73957,"lon":25.96172}]},{"ua":{"name":"Ярославичі"},"ru":{"name":"Ярославичи"},"nodes":[{"lat":49.73923,"lon":25.17071}]},{"ua":{"name":"Капустинський Ліс"},"ru":{"name":"Капустинский Лес"},"nodes":[{"lat":49.7383381,"lon":25.7803565}]},{"ua":{"name":"Дітківці"},"ru":{"name":"Детковцы"},"nodes":[{"lat":49.74346,"lon":25.5079793}]},{"ua":{"name":"Мусорівці"},"ru":{"name":"Мусоровцы"},"nodes":[{"lat":49.7377912,"lon":25.831161}]},{"ua":{"name":"Шпиколоси"},"ru":{"name":"Шпиколосы"},"nodes":[{"lat":49.734975,"lon":24.859659}]},{"ua":{"name":"Сновичі"},"ru":{"name":"Сновичи"},"nodes":[{"lat":49.734715,"lon":24.940659}]},{"ua":{"name":"Вербівка"},"ru":{"name":"Вербовка"},"nodes":[{"lat":49.733051,"lon":26.631201}]},{"ua":{"name":"Лагодів"},"ru":{"name":"Лагодов"},"nodes":[{"lat":49.731129,"lon":24.513142}]},{"ua":{"name":"Гальчинці"},"ru":{"name":"Гальчинцы"},"nodes":[{"lat":49.732361,"lon":26.343161}]},{"ua":{"name":"Городище"},"ru":{"name":"Городище"},"nodes":[{"lat":49.73236,"lon":25.41927}]},{"ua":{"name":"Зашків"},"ru":{"name":"Зашкив"},"nodes":[{"lat":49.732323,"lon":24.742647}]},{"ua":{"name":"Монилівка"},"ru":{"name":"Мониловка"},"nodes":[{"lat":49.73133,"lon":25.19714}]},{"ua":{"name":"Мала Клітна"},"ru":{"name":"Малая Клетна"},"nodes":[{"lat":49.729961,"lon":26.674459}]},{"ua":{"name":"Бзовиця"},"ru":{"name":"Бзовица"},"nodes":[{"lat":49.72996,"lon":25.29602}]},{"ua":{"name":"Кобзарівка"},"ru":{"name":"Кобзарёвка"},"nodes":[{"lat":49.7288122,"lon":25.4518892}]},{"ua":{"name":"Носівці"},"ru":{"name":"Носовцы"},"nodes":[{"lat":49.72824,"lon":25.38529}]},{"ua":{"name":"Капустинці"},"ru":{"name":"Капустинцы"},"nodes":[{"lat":49.7268628,"lon":25.816958}]},{"ua":{"name":"Волиця Друга"},"ru":{"name":"Волица Вторая"},"nodes":[{"lat":49.726871,"lon":26.688881}]},{"ua":{"name":"Лоні"},"ru":{"name":"Лони"},"nodes":[{"lat":49.728718,"lon":24.66976}]},{"ua":{"name":"Лісові"},"ru":{"name":"Лесовые"},"nodes":[{"lat":49.724663,"lon":24.717434}]},{"ua":{"name":"Єлизаветпіль"},"ru":{"name":"Елизаветполь"},"nodes":[{"lat":49.724812,"lon":26.384701}]},{"ua":{"name":"Хомівка"},"ru":{"name":"Хомовка"},"nodes":[{"lat":49.72481,"lon":25.53944}]},{"ua":{"name":"Дубина"},"ru":{"name":"Дубина"},"nodes":[{"lat":49.724121,"lon":26.790159}]},{"ua":{"name":"Кутиска"},"ru":{"name":"Кутыска"},"nodes":[{"lat":49.7394204,"lon":26.0385179}]},{"ua":{"name":"Ремезівці"},"ru":{"name":"Ремезовцы"},"nodes":[{"lat":49.722681,"lon":24.885778}]},{"ua":{"name":"Новики"},"ru":{"name":"Новики"},"nodes":[{"lat":49.72,"lon":25.6905}]},{"ua":{"name":"Кабарівці"},"ru":{"name":"Кабаровцы"},"nodes":[{"lat":49.71966,"lon":25.13294}]},{"ua":{"name":"Метенів"},"ru":{"name":"Метенев"},"nodes":[{"lat":49.7193151,"lon":25.0970663}]},{"ua":{"name":"Новодубище"},"ru":{"name":"Новодубище"},"nodes":[{"lat":49.718281,"lon":26.863291}]},{"ua":{"name":"Чорний Ліс"},"ru":{"name":"Чёрный Лес"},"nodes":[{"lat":49.7162325,"lon":25.7572583}]},{"ua":{"name":"Беримівці"},"ru":{"name":"Беримовцы"},"nodes":[{"lat":49.71794,"lon":25.20195}]},{"ua":{"name":"Красносільці"},"ru":{"name":"Красносельцы"},"nodes":[{"lat":49.718212,"lon":24.976576}]},{"ua":{"name":"Красносільці"},"ru":{"name":"Красносельцы"},"nodes":[{"lat":49.7148345,"lon":25.8236724}]},{"ua":{"name":"Славна"},"ru":{"name":"Славная"},"nodes":[{"lat":49.71416,"lon":25.03098}]},{"ua":{"name":"Базалія"},"ru":{"name":"Базалия"},"nodes":[{"lat":49.71382,"lon":26.47877}]},{"ua":{"name":"Жуків"},"ru":{"name":"Жуков"},"nodes":[{"lat":49.712276,"lon":24.805275}]},{"ua":{"name":"Чумалі"},"ru":{"name":"Чумали"},"nodes":[{"lat":49.7068355,"lon":25.6585208}]},{"ua":{"name":"Лонівка"},"ru":{"name":"Лоновка"},"nodes":[{"lat":49.712139,"lon":24.720602}]},{"ua":{"name":"Гаївка","old_name":"Улянове"},"ru":{"name":"Гаївка","old_name":"Ульяново"},"nodes":[{"lat":49.711071,"lon":26.30196}]},{"ua":{"name":"Щаснівка"},"ru":{"name":"Щасновка"},"nodes":[{"lat":49.709702,"lon":26.23398}]},{"ua":{"name":"Камінна"},"ru":{"name":"Каменная"},"nodes":[{"lat":49.707024,"lon":24.772919}]},{"ua":{"name":"Михиринці"},"ru":{"name":"Михиринцы"},"nodes":[{"lat":49.707642,"lon":26.56632}]},{"ua":{"name":"Сировари"},"ru":{"name":"Сыровары"},"nodes":[{"lat":49.7024045,"lon":25.2890892}]},{"ua":{"name":"Синява"},"ru":{"name":"Синява"},"nodes":[{"lat":49.7062715,"lon":25.8966029}]},{"ua":{"name":"Малі Жеребки"},"ru":{"name":"Малые Жеребки"},"nodes":[{"lat":49.706612,"lon":26.53301}]},{"ua":{"name":"Розношинці"},"ru":{"name":"Розношинцы"},"nodes":[{"lat":49.7043431,"lon":25.832605}]},{"ua":{"name":"Кошелівка"},"ru":{"name":"Кошелевка"},"nodes":[{"lat":49.705921,"lon":26.650089}]},{"ua":{"name":"Пилипи"},"ru":{"name":"Пилипы"},"nodes":[{"lat":49.705238,"lon":26.829639}]},{"ua":{"name":"Мончинці"},"ru":{"name":"Мончинцы"},"nodes":[{"lat":49.705238,"lon":26.767851}]},{"ua":{"name":"Малий Глибочок"},"ru":{"name":"Малый Глубочок"},"nodes":[{"lat":49.70455,"lon":25.80277}]},{"ua":{"name":"Кудинівці"},"ru":{"name":"Кудиновцы"},"nodes":[{"lat":49.70455,"lon":25.20641}]},{"ua":{"name":"Плісняни"},"ru":{"name":"Плесняны"},"nodes":[{"lat":49.70352,"lon":25.03304}]},{"ua":{"name":"Унів"},"ru":{"name":"Унив"},"nodes":[{"lat":49.704941,"lon":24.571054}]},{"ua":{"name":"Яцківці"},"ru":{"name":"Яцковцы"},"nodes":[{"lat":49.7012803,"lon":25.2793076}]},{"ua":{"name":"Кудобинці"},"ru":{"name":"Кудобинцы"},"nodes":[{"lat":49.7008006,"lon":25.1726598}]},{"ua":{"name":"Сивороги"},"ru":{"name":"Сивороги"},"nodes":[{"lat":49.70163,"lon":24.549053}]},{"ua":{"name":"Вишнівчик"},"ru":{"name":"Вишневчик"},"nodes":[{"lat":49.701118,"lon":24.74361}]},{"ua":{"name":"Щаснівка"},"ru":{"name":"Щасновка"},"nodes":[{"lat":49.7039339,"lon":26.2056306}]},{"ua":{"name":"Опрілівці"},"ru":{"name":"Опреловцы"},"nodes":[{"lat":49.69974,"lon":25.66681}]},{"ua":{"name":"Червоний Случ"},"ru":{"name":"Червоный Случ"},"nodes":[{"lat":49.699402,"lon":26.347281}]},{"ua":{"name":"Іванівка"},"ru":{"name":"Ивановка"},"nodes":[{"lat":49.698711,"lon":26.4671}]},{"ua":{"name":"Роздоріжне"},"ru":{"name":"Раздорожное"},"nodes":[{"lat":49.69743,"lon":24.842522}]},{"ua":{"name":"Заставки"},"ru":{"name":"Заставки"},"nodes":[{"lat":49.698078,"lon":26.946032}]},{"ua":{"name":"Велика Клітна"},"ru":{"name":"Великая Клетна"},"nodes":[{"lat":49.696308,"lon":26.67927}]},{"ua":{"name":"Липівці"},"ru":{"name":"Липовцы"},"nodes":[{"lat":49.69445,"lon":24.648516}]},{"ua":{"name":"Червоний Острів"},"ru":{"name":"Червоный Остров"},"nodes":[{"lat":49.69562,"lon":26.5131}]},{"ua":{"name":"Ігровиця"},"ru":{"name":"Игровица"},"nodes":[{"lat":49.69528,"lon":25.55077}]},{"ua":{"name":"Білківці"},"ru":{"name":"Белковцы"},"nodes":[{"lat":49.6890071,"lon":25.3097253}]},{"ua":{"name":"Іванківці"},"ru":{"name":"Иванковцы"},"nodes":[{"lat":49.69425,"lon":25.46597}]},{"ua":{"name":"Підгір’я"},"ru":{"name":"Подгорье"},"nodes":[{"lat":49.693909,"lon":24.900511}]},{"ua":{"name":"Зарубинці"},"ru":{"name":"Зарубинцы"},"nodes":[{"lat":49.69322,"lon":25.69119}]},{"ua":{"name":"Жуківці"},"ru":{"name":"Жуковцы"},"nodes":[{"lat":49.69322,"lon":25.238}]},{"ua":{"name":"Млинівці"},"ru":{"name":"Млыновцы"},"nodes":[{"lat":49.69322,"lon":25.14084}]},{"ua":{"name":"Гнилиці"},"ru":{"name":"Гнилицы"},"nodes":[{"lat":49.69288,"lon":26.08807}]},{"ua":{"name":"Махнівці"},"ru":{"name":"Махновцы"},"nodes":[{"lat":49.692768,"lon":24.980133}]},{"ua":{"name":"Новоіванівка"},"ru":{"name":"Новоивановка"},"nodes":[{"lat":49.692188,"lon":26.384701}]},{"ua":{"name":"Шили"},"ru":{"name":"Шилы"},"nodes":[{"lat":49.69185,"lon":25.98473}]},{"ua":{"name":"Чижів"},"ru":{"name":"Чижов"},"nodes":[{"lat":49.693832,"lon":24.942934}]},{"ua":{"name":"Чернихів"},"ru":{"name":"Чернихов"},"nodes":[{"lat":49.6915,"lon":25.4512}]},{"ua":{"name":"Ліски"},"ru":{"name":"Лески"},"nodes":[{"lat":49.6845322,"lon":25.7327636}]},{"ua":{"name":"Случ"},"ru":{"name":"Случ"},"nodes":[{"lat":49.688309,"lon":26.421989}]},{"ua":{"name":"Нова Гребля"},"ru":{"name":"Новая Гребля"},"nodes":[{"lat":49.688068,"lon":26.448561}]},{"ua":{"name":"Грабківці"},"ru":{"name":"Грабковцы"},"nodes":[{"lat":49.7039095,"lon":25.1143948}]},{"ua":{"name":"Лісове","old_name":"Жовтневе"},"ru":{"name":"Лесовое","old_name":"Жовтневое"},"nodes":[{"lat":49.687382,"lon":26.583481}]},{"ua":{"name":"Сорокодуби"},"ru":{"name":"Сорокодубы"},"nodes":[{"lat":49.687038,"lon":26.75034}]},{"ua":{"name":"Нестерівці"},"ru":{"name":"Нестеровцы"},"nodes":[{"lat":49.68704,"lon":25.38082}]},{"ua":{"name":"Мшана"},"ru":{"name":"Мшана"},"nodes":[{"lat":49.68704,"lon":25.24521}]},{"ua":{"name":"Пальчинці"},"ru":{"name":"Пальчинцы"},"nodes":[{"lat":49.686699,"lon":26.267969}]},{"ua":{"name":"Коросне"},"ru":{"name":"Коросно"},"nodes":[{"lat":49.684067,"lon":24.531303}]},{"ua":{"name":"Кропивна"},"ru":{"name":"Кропивная"},"nodes":[{"lat":49.686352,"lon":24.80438}]},{"ua":{"name":"Моньки"},"ru":{"name":"Моньки"},"nodes":[{"lat":49.686008,"lon":26.79463}]},{"ua":{"name":"Малі Зозулинці"},"ru":{"name":"Малые Зозулинцы"},"nodes":[{"lat":49.682346,"lon":26.679363}]},{"ua":{"name":"Тарасівка"},"ru":{"name":"Тарасовка"},"nodes":[{"lat":49.6839961,"lon":25.7989179}]},{"ua":{"name":"Дружне"},"ru":{"name":"Дружное"},"nodes":[{"lat":49.684292,"lon":26.9886}]},{"ua":{"name":"Плеників"},"ru":{"name":"Плеников"},"nodes":[{"lat":49.683292,"lon":24.727728}]},{"ua":{"name":"Червоний Кут"},"ru":{"name":"Червоный Кут"},"nodes":[{"lat":49.683609,"lon":26.583139}]},{"ua":{"name":"Дубівці"},"ru":{"name":"Дубовцы"},"nodes":[{"lat":49.68292,"lon":25.64175}]},{"ua":{"name":"Волиця"},"ru":{"name":"Волица"},"nodes":[{"lat":49.681889,"lon":26.91444}]},{"ua":{"name":"Тустоголови"},"ru":{"name":"Тустоголовы"},"nodes":[{"lat":49.68189,"lon":25.16213}]},{"ua":{"name":"Вірлів"},"ru":{"name":"Вирлов"},"nodes":[{"lat":49.68086,"lon":25.04196}]},{"ua":{"name":"Лисичинці"},"ru":{"name":"Лисичинцы"},"nodes":[{"lat":49.67983,"lon":26.00533}]},{"ua":{"name":"Діброва"},"ru":{"name":"Диброва"},"nodes":[{"lat":49.67983,"lon":25.94318}]},{"ua":{"name":"Богданівка"},"ru":{"name":"Богдановка"},"nodes":[{"lat":49.67983,"lon":25.29362}]},{"ua":{"name":"Торгів"},"ru":{"name":"Торгов"},"nodes":[{"lat":49.683456,"lon":24.962183}]},{"ua":{"name":"Залужжя"},"ru":{"name":"Залужье"},"nodes":[{"lat":49.6675523,"lon":25.7506238}]},{"ua":{"name":"Дубище"},"ru":{"name":"Дубище"},"nodes":[{"lat":49.678799,"lon":26.875311}]},{"ua":{"name":"Пальчинці"},"ru":{"name":"Пальчинцы"},"nodes":[{"lat":49.67674,"lon":26.23844}]},{"ua":{"name":"Підлісся"},"ru":{"name":"Подлесье"},"nodes":[{"lat":49.672329,"lon":26.701056}]},{"ua":{"name":"Чернелівка"},"ru":{"name":"Чернелевка"},"nodes":[{"lat":49.674679,"lon":26.825871}]},{"ua":{"name":"Великі Зозулинці"},"ru":{"name":"Великие Зозулинцы"},"nodes":[{"lat":49.673237,"lon":26.660288}]},{"ua":{"name":"Кошляки"},"ru":{"name":"Кошляки"},"nodes":[{"lat":49.67434,"lon":26.14437}]},{"ua":{"name":"Малашівці"},"ru":{"name":"Малашевцы"},"nodes":[{"lat":49.67399,"lon":25.49206}]},{"ua":{"name":"Кокутківці"},"ru":{"name":"Кокутковцы"},"nodes":[{"lat":49.67399,"lon":25.39352}]},{"ua":{"name":"Авратин"},"ru":{"name":"Авратин"},"nodes":[{"lat":49.671928,"lon":26.306419}]},{"ua":{"name":"Підгайчики"},"ru":{"name":"Подгайчики"},"nodes":[{"lat":49.6709,"lon":25.20229}]},{"ua":{"name":"Шельпаки"},"ru":{"name":"Шельпаки"},"nodes":[{"lat":49.67022,"lon":26.01872}]},{"ua":{"name":"Базаринці"},"ru":{"name":"Базаринцы"},"nodes":[{"lat":49.6776532,"lon":25.7806846}]},{"ua":{"name":"Новосілка"},"ru":{"name":"Новосёлка"},"nodes":[{"lat":49.665829,"lon":26.678799}]},{"ua":{"name":"Храбузна"},"ru":{"name":"Храбузна"},"nodes":[{"lat":49.66987,"lon":25.02548}]},{"ua":{"name":"Присівці"},"ru":{"name":"Присовцы"},"nodes":[{"lat":49.66953,"lon":25.10891}]},{"ua":{"name":"Нижчі Луб’янки"},"ru":{"name":"Низшие Лубянки"},"nodes":[{"lat":49.66919,"lon":25.8371}]},{"ua":{"name":"Коропець"},"ru":{"name":"Коропец"},"nodes":[{"lat":49.669189,"lon":24.88884}]},{"ua":{"name":"Великі Жеребки"},"ru":{"name":"Великие Жеребки"},"nodes":[{"lat":49.668159,"lon":26.56426}]},{"ua":{"name":"Перемишляни"},"ru":{"name":"Перемышляны"},"nodes":[{"lat":49.6693553,"lon":24.5584141}]},{"ua":{"name":"Івашківці"},"ru":{"name":"Ивашковцы"},"nodes":[{"lat":49.66713,"lon":25.67711}]},{"ua":{"name":"Чухелі"},"ru":{"name":"Чухели"},"nodes":[{"lat":49.66679,"lon":26.41869}]},{"ua":{"name":"Глядки"},"ru":{"name":"Глядки"},"nodes":[{"lat":49.66679,"lon":25.46871}]},{"ua":{"name":"Богданівка"},"ru":{"name":"Богдановка"},"nodes":[{"lat":49.66576,"lon":26.480829}]},{"ua":{"name":"Волосівка"},"ru":{"name":"Волосовка"},"nodes":[{"lat":49.66576,"lon":25.22255}]},{"ua":{"name":"Висипівці"},"ru":{"name":"Высыповцы"},"nodes":[{"lat":49.66541,"lon":25.41481}]},{"ua":{"name":"Борщів"},"ru":{"name":"Борщов"},"nodes":[{"lat":49.661404,"lon":24.594011}]},{"ua":{"name":"Осташівці"},"ru":{"name":"Осташевцы"},"nodes":[{"lat":49.66473,"lon":25.328291}]},{"ua":{"name":"Заслучне"},"ru":{"name":"Заслучное"},"nodes":[{"lat":49.6637,"lon":26.77162}]},{"ua":{"name":"Гнилички"},"ru":{"name":"Гнилички"},"nodes":[{"lat":49.66335,"lon":26.09734}]},{"ua":{"name":"Богутин"},"ru":{"name":"Богутин"},"nodes":[{"lat":49.669415,"lon":24.944548}]},{"ua":{"name":"Смереківка"},"ru":{"name":"Смерековка"},"nodes":[{"lat":49.662319,"lon":24.816401}]},{"ua":{"name":"Сухівці"},"ru":{"name":"Суховцы"},"nodes":[{"lat":49.66129,"lon":26.04858}]},{"ua":{"name":"Ярчівці"},"ru":{"name":"Ярчовцы"},"nodes":[{"lat":49.66026,"lon":25.2174}]},{"ua":{"name":"Нове Село"},"ru":{"name":"Новое Село"},"nodes":[{"lat":49.65992,"lon":26.07605}]},{"ua":{"name":"Виписки"},"ru":{"name":"Выписки"},"nodes":[{"lat":49.660099,"lon":24.653843}]},{"ua":{"name":"Коршилів"},"ru":{"name":"Коршилов"},"nodes":[{"lat":49.65889,"lon":25.09827}]},{"ua":{"name":"Данилівці"},"ru":{"name":"Даниловцы"},"nodes":[{"lat":49.65786,"lon":25.30941}]},{"ua":{"name":"Чемеринці"},"ru":{"name":"Чемеринцы"},"nodes":[{"lat":49.658577,"lon":24.771334}]},{"ua":{"name":"Чуперносів"},"ru":{"name":"Чуперносов"},"nodes":[{"lat":49.65834,"lon":24.540976}]},{"ua":{"name":"Попівці"},"ru":{"name":"Поповцы"},"nodes":[{"lat":49.65752,"lon":26.536449}]},{"ua":{"name":"Вищі Луб’янки"},"ru":{"name":"Высшие Лубянки"},"nodes":[{"lat":49.65752,"lon":25.86113}]},{"ua":{"name":"Кучерівка"},"ru":{"name":"Кучеровка"},"nodes":[{"lat":49.655506,"lon":24.772839}]},{"ua":{"name":"Заруддя"},"ru":{"name":"Зарудье"},"nodes":[{"lat":49.65477,"lon":25.06359}]},{"ua":{"name":"Голотки"},"ru":{"name":"Голотки"},"nodes":[{"lat":49.65443,"lon":26.16566}]},{"ua":{"name":"Кульби"},"ru":{"name":"Кульбы"},"nodes":[{"lat":49.653084,"lon":24.981699}]},{"ua":{"name":"Озерянка"},"ru":{"name":"Озерянка"},"nodes":[{"lat":49.6514865,"lon":25.0769678}]},{"ua":{"name":"Лавриківці"},"ru":{"name":"Лавриковцы"},"nodes":[{"lat":49.6494265,"lon":25.0568981}]},{"ua":{"name":"Стегниківці"},"ru":{"name":"Стегниковцы"},"nodes":[{"lat":49.65305,"lon":25.65479}]},{"ua":{"name":"Серединці"},"ru":{"name":"Серединцы"},"nodes":[{"lat":49.653049,"lon":25.432659}]},{"ua":{"name":"Івачів Горішній"},"ru":{"name":"Ивачев Горишний"},"nodes":[{"lat":49.65271,"lon":25.51987}]},{"ua":{"name":"Старий Збараж"},"ru":{"name":"Старый Збараж"},"nodes":[{"lat":49.6516469,"lon":25.7445453}]},{"ua":{"name":"Збручівка"},"ru":{"name":"Збручовка"},"nodes":[{"lat":49.65134,"lon":26.271061}]},{"ua":{"name":"Пнятин"},"ru":{"name":"Пнятин"},"nodes":[{"lat":49.648663,"lon":24.683144}]},{"ua":{"name":"Кимир"},"ru":{"name":"Кимир"},"nodes":[{"lat":49.651718,"lon":24.500816}]},{"ua":{"name":"Чепелівка"},"ru":{"name":"Чепелевка"},"nodes":[{"lat":49.64996,"lon":26.87462}]},{"ua":{"name":"Погрібці"},"ru":{"name":"Погребцы"},"nodes":[{"lat":49.64928,"lon":25.1326}]},{"ua":{"name":"Шмирки"},"ru":{"name":"Шмырки"},"nodes":[{"lat":49.648746,"lon":26.602077}]},{"ua":{"name":"Гуральня"},"ru":{"name":"Гуральня"},"nodes":[{"lat":49.646004,"lon":24.778385}]},{"ua":{"name":"Новий Роговець"},"ru":{"name":"Новый Роговец"},"nodes":[{"lat":49.64722,"lon":25.89855}]},{"ua":{"name":"Ладанці"},"ru":{"name":"Ладанцы"},"nodes":[{"lat":49.645348,"lon":24.630926}]},{"ua":{"name":"Ушковичі"},"ru":{"name":"Ушковичи"},"nodes":[{"lat":49.641945,"lon":24.549282}]},{"ua":{"name":"Жабиня"},"ru":{"name":"Жабыня"},"nodes":[{"lat":49.6489447,"lon":25.0020073}]},{"ua":{"name":"Юхт","old_name":"Улянівка"},"ru":{"name":"Юхт","old_name":"Ульяновка"},"nodes":[{"lat":49.6455,"lon":26.701929}]},{"ua":{"name":"Івачів Долішній"},"ru":{"name":"Ивачев Долишний"},"nodes":[{"lat":49.64481,"lon":25.54459}]},{"ua":{"name":"Надільне"},"ru":{"name":"Надельное"},"nodes":[{"lat":49.645325,"lon":24.974419}]},{"ua":{"name":"Поморяни"},"ru":{"name":"Поморяны"},"nodes":[{"lat":49.6363882,"lon":24.9318616}]},{"ua":{"name":"Левківці"},"ru":{"name":"Левковцы"},"nodes":[{"lat":49.64172,"lon":26.46298}]},{"ua":{"name":"Травотолоки"},"ru":{"name":"Травотолоки"},"nodes":[{"lat":49.64172,"lon":25.05158}]},{"ua":{"name":"Загора"},"ru":{"name":"Загора"},"nodes":[{"lat":49.642708,"lon":24.960415}]},{"ua":{"name":"Воробіївка"},"ru":{"name":"Воробиевка"},"nodes":[{"lat":49.64035,"lon":25.44983}]},{"ua":{"name":"Добромірка"},"ru":{"name":"Добромерка"},"nodes":[{"lat":49.64001,"lon":25.97374}]},{"ua":{"name":"Козярі"},"ru":{"name":"Козяры"},"nodes":[{"lat":49.63932,"lon":26.08566}]},{"ua":{"name":"Футори"},"ru":{"name":"Футоры"},"nodes":[{"lat":49.6390868,"lon":25.1648965}]},{"ua":{"name":"Лонки"},"ru":{"name":"Лонки"},"nodes":[{"lat":49.637951,"lon":26.36581}]},{"ua":{"name":"Підсмереки"},"ru":{"name":"Подсмереки"},"nodes":[{"lat":49.640095,"lon":24.831467}]},{"ua":{"name":"Світле","old_name":"Улянівка Друга"},"ru":{"name":"Светлое","old_name":"Ульяновка Вторая"},"nodes":[{"lat":49.63657,"lon":26.744499}]},{"ua":{"name":"Токи"},"ru":{"name":"Токи"},"nodes":[{"lat":49.63623,"lon":26.22437}]},{"ua":{"name":"Яворівці"},"ru":{"name":"Яворовцы"},"nodes":[{"lat":49.635891,"lon":26.93642}]},{"ua":{"name":"Слобідка-Чернелівська"},"ru":{"name":"Слободка-Чернелевская"},"nodes":[{"lat":49.64082,"lon":26.807325}]},{"ua":{"name":"Курівці"},"ru":{"name":"Куровцы"},"nodes":[{"lat":49.63383,"lon":25.467}]},{"ua":{"name":"Кальне"},"ru":{"name":"Кальное"},"nodes":[{"lat":49.63211,"lon":24.97398}]},{"ua":{"name":"Бібщани"},"ru":{"name":"Бибщаны"},"nodes":[{"lat":49.633472,"lon":24.903412}]},{"ua":{"name":"Голошинці"},"ru":{"name":"Голошинцы"},"nodes":[{"lat":49.6298845,"lon":26.0974082}]},{"ua":{"name":"Кузубатиця"},"ru":{"name":"Кузубатица"},"nodes":[{"lat":49.631248,"lon":24.776451}]},{"ua":{"name":"Цебрів"},"ru":{"name":"Цебров"},"nodes":[{"lat":49.63074,"lon":25.41687}]},{"ua":{"name":"Петрівщина"},"ru":{"name":"Петровщина"},"nodes":[{"lat":49.6282635,"lon":26.2822184}]},{"ua":{"name":"Кретівці"},"ru":{"name":"Кретовцы"},"nodes":[{"lat":49.63005,"lon":25.84087}]},{"ua":{"name":"Ободівка"},"ru":{"name":"Ободовка"},"nodes":[{"lat":49.62833,"lon":26.017}]},{"ua":{"name":"Калинівка"},"ru":{"name":"Калиновка"},"nodes":[{"lat":49.62833,"lon":25.13672}]},{"ua":{"name":"Озерна"},"ru":{"name":"Озёрная"},"nodes":[{"lat":49.627991,"lon":25.33173}]},{"ua":{"name":"Яхнівці"},"ru":{"name":"Яхновцы"},"nodes":[{"lat":49.627651,"lon":26.308821}]},{"ua":{"name":"Лозівка"},"ru":{"name":"Лозовка"},"nodes":[{"lat":49.6273,"lon":26.01048}]},{"ua":{"name":"Воскодавинці"},"ru":{"name":"Воскодавинцы"},"nodes":[{"lat":49.625931,"lon":26.89316}]},{"ua":{"name":"Чернихівці"},"ru":{"name":"Черниховцы"},"nodes":[{"lat":49.6274289,"lon":25.7257506}]},{"ua":{"name":"Курники"},"ru":{"name":"Курники"},"nodes":[{"lat":49.62559,"lon":25.65548}]},{"ua":{"name":"Кушнирівська Слобідка"},"ru":{"name":"Кушнировская Слободка"},"nodes":[{"lat":49.6271165,"lon":26.4048709}]},{"ua":{"name":"Брикун"},"ru":{"name":"Брыкун"},"nodes":[{"lat":49.624527,"lon":24.624668}]},{"ua":{"name":"Курний"},"ru":{"name":"Курный"},"nodes":[{"lat":49.624718,"lon":24.810257}]},{"ua":{"name":"Ожигівці"},"ru":{"name":"Ожиговцы"},"nodes":[{"lat":49.623871,"lon":26.23604}]},{"ua":{"name":"Грицівці"},"ru":{"name":"Грицевцы"},"nodes":[{"lat":49.6230134,"lon":25.8395868}]},{"ua":{"name":"Вільшанка"},"ru":{"name":"Ольшанка"},"nodes":[{"lat":49.62353,"lon":25.23731}]},{"ua":{"name":"Личівка"},"ru":{"name":"Лычовка"},"nodes":[{"lat":49.622833,"lon":26.615551}]},{"ua":{"name":"Березина"},"ru":{"name":"Березина"},"nodes":[{"lat":49.622818,"lon":26.573559}]},{"ua":{"name":"Дунаїв"},"ru":{"name":"Дунаев"},"nodes":[{"lat":49.620213,"lon":24.822845}]},{"ua":{"name":"Слобідка-Красилівська"},"ru":{"name":"Слободка-Красиловская"},"nodes":[{"lat":49.619713,"lon":26.98288}]},{"ua":{"name":"Плетеничі"},"ru":{"name":"Плетеничи"},"nodes":[{"lat":49.62215,"lon":24.659161}]},{"ua":{"name":"Нестюки"},"ru":{"name":"Нестюки"},"nodes":[{"lat":49.624458,"lon":24.87991}]},{"ua":{"name":"Холодець"},"ru":{"name":"Холодец"},"nodes":[{"lat":49.6213787,"lon":26.4792568}]},{"ua":{"name":"Терпилівка"},"ru":{"name":"Терпиловка"},"nodes":[{"lat":49.62078,"lon":26.05099}]},{"ua":{"name":"Великий Глибочок"},"ru":{"name":"Великий Глубочек"},"nodes":[{"lat":49.62078,"lon":25.52982}]},{"ua":{"name":"Соболівка"},"ru":{"name":"Соболевка"},"nodes":[{"lat":49.6184253,"lon":26.2203756}]},{"ua":{"name":"Воробіївка"},"ru":{"name":"Воробиевка"},"nodes":[{"lat":49.62044,"lon":26.189}]},{"ua":{"name":"Вовків"},"ru":{"name":"Волков"},"nodes":[{"lat":49.62009,"lon":24.597019}]},{"ua":{"name":"Плотича"},"ru":{"name":"Плотыча"},"nodes":[{"lat":49.6214678,"lon":25.5598107}]},{"ua":{"name":"Малий Полюхів"},"ru":{"name":"Малый Полюхов"},"nodes":[{"lat":49.619061,"lon":24.682159}]},{"ua":{"name":"Трудове"},"ru":{"name":"Трудовое"},"nodes":[{"lat":49.615601,"lon":26.667759}]},{"ua":{"name":"Цецівка"},"ru":{"name":"Цецовка"},"nodes":[{"lat":49.61666,"lon":25.09758}]},{"ua":{"name":"Копачівка Друга"},"ru":{"name":"Копачовка Вторая"},"nodes":[{"lat":49.615292,"lon":26.6082}]},{"ua":{"name":"Писарівка"},"ru":{"name":"Писаревка"},"nodes":[{"lat":49.614262,"lon":26.74931}]},{"ua":{"name":"Годів"},"ru":{"name":"Годов"},"nodes":[{"lat":49.61426,"lon":25.02136}]},{"ua":{"name":"Купіль"},"ru":{"name":"Купель"},"nodes":[{"lat":49.613571,"lon":26.51207}]},{"ua":{"name":"Чагарі-Збаразькі"},"ru":{"name":"Чагари-Збаражские"},"nodes":[{"lat":49.6164406,"lon":25.9117718}]},{"ua":{"name":"Кушнирівка"},"ru":{"name":"Кушнировка"},"nodes":[{"lat":49.612128,"lon":26.4366226}]},{"ua":{"name":"Хоростець"},"ru":{"name":"Хоростец"},"nodes":[{"lat":49.61048,"lon":25.12539}]},{"ua":{"name":"Хомина"},"ru":{"name":"Хомина"},"nodes":[{"lat":49.609196,"lon":24.728662}]},{"ua":{"name":"Медин"},"ru":{"name":"Медин"},"nodes":[{"lat":49.60911,"lon":26.1533}]},{"ua":{"name":"Лозова"},"ru":{"name":"Лозовая"},"nodes":[{"lat":49.60911,"lon":25.66029}]},{"ua":{"name":"Красна"},"ru":{"name":"Красная"},"nodes":[{"lat":49.60876,"lon":25.17895}]},{"ua":{"name":"Біле"},"ru":{"name":"Белое"},"nodes":[{"lat":49.609436,"lon":24.765989}]},{"ua":{"name":"Климківці"},"ru":{"name":"Климковцы"},"nodes":[{"lat":49.60533,"lon":26.1018}]},{"ua":{"name":"Розгадів"},"ru":{"name":"Розгадов"},"nodes":[{"lat":49.605331,"lon":24.95785}]},{"ua":{"name":"Глібки"},"ru":{"name":"Глебки"},"nodes":[{"lat":49.604301,"lon":26.72459}]},{"ua":{"name":"Гаї-Шевченківські"},"ru":{"name":"Гаи-Шевченковские"},"nodes":[{"lat":49.5935966,"lon":25.6295045}]},{"ua":{"name":"Стриївка"},"ru":{"name":"Стрыевка"},"nodes":[{"lat":49.6043436,"lon":25.8179445}]},{"ua":{"name":"Йосипівка"},"ru":{"name":"Йосиповка"},"nodes":[{"lat":49.60224,"lon":25.08797}]},{"ua":{"name":"Говори"},"ru":{"name":"Говоры"},"nodes":[{"lat":49.601212,"lon":26.696779}]},{"ua":{"name":"Чернява"},"ru":{"name":"Чернява"},"nodes":[{"lat":49.600182,"lon":26.547779}]},{"ua":{"name":"Скорики"},"ru":{"name":"Скорики"},"nodes":[{"lat":49.59949,"lon":26.13888}]},{"ua":{"name":"Вільшани"},"ru":{"name":"Ольшаны"},"nodes":[{"lat":49.59881,"lon":26.26213}]},{"ua":{"name":"Травневе"},"ru":{"name":"Травневое"},"nodes":[{"lat":49.59881,"lon":25.78594}]},{"ua":{"name":"Цицори"},"ru":{"name":"Цицоры"},"nodes":[{"lat":49.59846,"lon":25.2799115}]},{"ua":{"name":"Хоробрів"},"ru":{"name":"Хоробров"},"nodes":[{"lat":49.59846,"lon":25.12367}]},{"ua":{"name":"Марківці"},"ru":{"name":"Марковцы"},"nodes":[{"lat":49.597431,"lon":26.79497}]},{"ua":{"name":"Максимівка"},"ru":{"name":"Максимовка"},"nodes":[{"lat":49.59709,"lon":25.90508}]},{"ua":{"name":"Просівці"},"ru":{"name":"Просовцы"},"nodes":[{"lat":49.59675,"lon":26.20274}]},{"ua":{"name":"Тернівка"},"ru":{"name":"Терновка"},"nodes":[{"lat":49.595757,"lon":24.806269}]},{"ua":{"name":"Глядки"},"ru":{"name":"Глядки"},"nodes":[{"lat":49.596062,"lon":26.5725}]},{"ua":{"name":"Пеньківці"},"ru":{"name":"Пеньковцы"},"nodes":[{"lat":49.5933227,"lon":26.1707288}]},{"ua":{"name":"Шевченкове"},"ru":{"name":"Шевченково"},"nodes":[{"lat":49.5999591,"lon":25.9867612}]},{"ua":{"name":"Білка"},"ru":{"name":"Белка"},"nodes":[{"lat":49.596775,"lon":24.619871}]},{"ua":{"name":"Костенів"},"ru":{"name":"Костенев"},"nodes":[{"lat":49.594143,"lon":24.595356}]},{"ua":{"name":"Клинини"},"ru":{"name":"Клинины"},"nodes":[{"lat":49.594341,"lon":26.41354}]},{"ua":{"name":"Польові Гринівці"},"ru":{"name":"Полевые Гриневцы"},"nodes":[{"lat":49.593658,"lon":26.76235}]},{"ua":{"name":"Кущівка"},"ru":{"name":"Кущевка"},"nodes":[{"lat":49.593399,"lon":26.542673}]},{"ua":{"name":"Пліхів"},"ru":{"name":"Плихов"},"nodes":[{"lat":49.593658,"lon":24.943769}]},{"ua":{"name":"Осталовичі"},"ru":{"name":"Осталовичи"},"nodes":[{"lat":49.599243,"lon":24.540871}]},{"ua":{"name":"Котюржинці"},"ru":{"name":"Котюржинцы"},"nodes":[{"lat":49.593311,"lon":26.8396}]},{"ua":{"name":"Велика Плавуча"},"ru":{"name":"Великая Плавуча"},"nodes":[{"lat":49.59228,"lon":25.21568}]},{"ua":{"name":"Покропивна"},"ru":{"name":"Покропивная"},"nodes":[{"lat":49.59194,"lon":25.37155}]},{"ua":{"name":"Поточани"},"ru":{"name":"Поточаны"},"nodes":[{"lat":49.590569,"lon":24.86412}]},{"ua":{"name":"Охримівці"},"ru":{"name":"Охримовцы"},"nodes":[{"lat":49.590221,"lon":25.75573}]},{"ua":{"name":"Августівка"},"ru":{"name":"Августовка"},"nodes":[{"lat":49.58988,"lon":25.10136}]},{"ua":{"name":"Залісся"},"ru":{"name":"Залесье"},"nodes":[{"lat":49.586909,"lon":25.0075191}]},{"ua":{"name":"Розсохи"},"ru":{"name":"Рассохи"},"nodes":[{"lat":49.588741,"lon":24.517767}]},{"ua":{"name":"Пахутинці"},"ru":{"name":"Пахутинцы"},"nodes":[{"lat":49.588161,"lon":26.60923}]},{"ua":{"name":"Мала Плавуча"},"ru":{"name":"Малая Плавуча"},"nodes":[{"lat":49.58782,"lon":25.1944}]},{"ua":{"name":"Шляхтинці"},"ru":{"name":"Шляхтинцы"},"nodes":[{"lat":49.58748,"lon":25.66715}]},{"ua":{"name":"Брюховичі"},"ru":{"name":"Брюховичи"},"nodes":[{"lat":49.587673,"lon":24.577072}]},{"ua":{"name":"Писарівка"},"ru":{"name":"Писаревка"},"nodes":[{"lat":49.588467,"lon":24.82621}]},{"ua":{"name":"Біла"},"ru":{"name":"Белая"},"nodes":[{"lat":49.5852204,"lon":25.57982}]},{"ua":{"name":"Клебанівка"},"ru":{"name":"Клебановка"},"nodes":[{"lat":49.58439,"lon":26.02009}]},{"ua":{"name":"Миколаїв"},"ru":{"name":"Николаев"},"nodes":[{"lat":49.583359,"lon":26.839939}]},{"ua":{"name":"Гонорівка"},"ru":{"name":"Гоноровка"},"nodes":[{"lat":49.582329,"lon":26.378519}]},{"ua":{"name":"Новосілки"},"ru":{"name":"Новосёлки"},"nodes":[{"lat":49.582329,"lon":24.74053}]},{"ua":{"name":"Везденьки"},"ru":{"name":"Везденьки"},"nodes":[{"lat":49.581982,"lon":26.87668}]},{"ua":{"name":"Подусів"},"ru":{"name":"Подусов"},"nodes":[{"lat":49.581638,"lon":24.680441}]},{"ua":{"name":"Глинна"},"ru":{"name":"Глинная"},"nodes":[{"lat":49.5813,"lon":25.17998}]},{"ua":{"name":"Бутівці","old_name":"Петрівське"},"ru":{"name":"Бутівці","old_name":"Петровское"},"nodes":[{"lat":49.579578,"lon":26.25458}]},{"ua":{"name":"Курилівка"},"ru":{"name":"Куриловка"},"nodes":[{"lat":49.581856,"lon":26.311432}]},{"ua":{"name":"Ставчинці"},"ru":{"name":"Ставчинцы"},"nodes":[{"lat":49.578209,"lon":26.729389}]},{"ua":{"name":"Митинці"},"ru":{"name":"Мытинцы"},"nodes":[{"lat":49.577862,"lon":26.94809}]},{"ua":{"name":"Гори-Стрийовецькі"},"ru":{"name":"Горы-Стрыевецкие"},"nodes":[{"lat":49.5764714,"lon":25.9146741}]},{"ua":{"name":"Заставки-Яблунів"},"ru":{"name":"Заставки-Яблонов"},"nodes":[{"lat":49.577183,"lon":24.627804}]},{"ua":{"name":"Малі Орлинці"},"ru":{"name":"Малые Орлинцы"},"nodes":[{"lat":49.575802,"lon":26.90003}]},{"ua":{"name":"Вочківці"},"ru":{"name":"Вочковцы"},"nodes":[{"lat":49.574772,"lon":26.216129}]},{"ua":{"name":"Киданці"},"ru":{"name":"Киданцы"},"nodes":[{"lat":49.57237,"lon":25.86834}]},{"ua":{"name":"Утіховичі"},"ru":{"name":"Утеховичи"},"nodes":[{"lat":49.576836,"lon":24.530479}]},{"ua":{"name":"Рябіївка"},"ru":{"name":"Рябиевка"},"nodes":[{"lat":49.571709,"lon":26.410402}]},{"ua":{"name":"Залужжя"},"ru":{"name":"Залужье"},"nodes":[{"lat":49.570309,"lon":24.908409}]},{"ua":{"name":"Манилівка"},"ru":{"name":"Маниловка"},"nodes":[{"lat":49.569618,"lon":26.806641}]},{"ua":{"name":"Урмань"},"ru":{"name":"Урмань"},"nodes":[{"lat":49.56962,"lon":24.95133}]},{"ua":{"name":"Коршилівка"},"ru":{"name":"Коршиловка"},"nodes":[{"lat":49.56928,"lon":26.06575}]},{"ua":{"name":"Новоленськ"},"ru":{"name":"Новоленск"},"nodes":[{"lat":49.568588,"lon":26.605801}]},{"ua":{"name":"Рекшин"},"ru":{"name":"Рекшин"},"nodes":[{"lat":49.567413,"lon":24.836063}]},{"ua":{"name":"Золочівка"},"ru":{"name":"Золочевка"},"nodes":[{"lat":49.56619,"lon":25.20332}]},{"ua":{"name":"Поручин"},"ru":{"name":"Поручин"},"nodes":[{"lat":49.556541,"lon":24.911339}]},{"ua":{"name":"Добряничі"},"ru":{"name":"Добряничи"},"nodes":[{"lat":49.565521,"lon":24.525654}]},{"ua":{"name":"Хотьківці"},"ru":{"name":"Хотьковцы"},"nodes":[{"lat":49.565498,"lon":26.95496}]},{"ua":{"name":"Іванівка"},"ru":{"name":"Ивановка"},"nodes":[{"lat":49.566219,"lon":24.619112}]},{"ua":{"name":"Стриганці"},"ru":{"name":"Стрыганцы"},"nodes":[{"lat":49.5620057,"lon":24.8536759}]},{"ua":{"name":"Довжанка"},"ru":{"name":"Должанка"},"nodes":[{"lat":49.5631418,"lon":25.4709524}]},{"ua":{"name":"Соборне","old_name":"Жовтневе"},"ru":{"name":"Соборне","old_name":"Жовтневое"},"nodes":[{"lat":49.56276,"lon":25.76569}]},{"ua":{"name":"Двірці"},"ru":{"name":"Двирци"},"nodes":[{"lat":49.562408,"lon":24.86858}]},{"ua":{"name":"Дорофіївка"},"ru":{"name":"Дорофеевка"},"nodes":[{"lat":49.56035,"lon":26.20377}]},{"ua":{"name":"Заберізки"},"ru":{"name":"Заберёзки"},"nodes":[{"lat":49.55967,"lon":25.14771}]},{"ua":{"name":"Росохуватець"},"ru":{"name":"Росоховатец"},"nodes":[{"lat":49.55795,"lon":26.06266}]},{"ua":{"name":"Козлів"},"ru":{"name":"Козлов"},"nodes":[{"lat":49.55658,"lon":25.33962}]},{"ua":{"name":"Гайдайки"},"ru":{"name":"Гайдайки"},"nodes":[{"lat":49.554516,"lon":26.514795}]},{"ua":{"name":"Болотня"},"ru":{"name":"Болотня"},"nodes":[{"lat":49.553925,"lon":24.683439}]},{"ua":{"name":"Богданівка"},"ru":{"name":"Богдановка"},"nodes":[{"lat":49.5565245,"lon":25.9875677}]},{"ua":{"name":"Байківці"},"ru":{"name":"Байковцы"},"nodes":[{"lat":49.5529251,"lon":25.6621317}]},{"ua":{"name":"Бальківці"},"ru":{"name":"Бальковцы"},"nodes":[{"lat":49.55109,"lon":26.27655}]},{"ua":{"name":"Катеринівка"},"ru":{"name":"Катериновка"},"nodes":[{"lat":49.549274,"lon":26.74921}]},{"ua":{"name":"Супранівка"},"ru":{"name":"Супрановка"},"nodes":[{"lat":49.5504,"lon":26.08498}]},{"ua":{"name":"Чернелів-Руський"},"ru":{"name":"Чернелев-Русский"},"nodes":[{"lat":49.5462414,"lon":25.7539686}]},{"ua":{"name":"Біще"},"ru":{"name":"Бище"},"nodes":[{"lat":49.549564,"lon":24.898216}]},{"ua":{"name":"Домаморич"},"ru":{"name":"Домаморич"},"nodes":[{"lat":49.54937,"lon":25.42236}]},{"ua":{"name":"Староміщина"},"ru":{"name":"Старомищина"},"nodes":[{"lat":49.5462369,"lon":26.1632188}]},{"ua":{"name":"Конюхи"},"ru":{"name":"Конюхи"},"nodes":[{"lat":49.54628,"lon":25.04299}]},{"ua":{"name":"Романове Село"},"ru":{"name":"Романовое Село"},"nodes":[{"lat":49.54559,"lon":25.88894}]},{"ua":{"name":"Ангелівка"},"ru":{"name":"Ангеловка"},"nodes":[{"lat":49.5492428,"lon":25.8248849}]},{"ua":{"name":"Кам’янки"},"ru":{"name":"Каменки"},"nodes":[{"lat":49.54456,"lon":26.02249}]},{"ua":{"name":"Дмухівці"},"ru":{"name":"Дмуховцы"},"nodes":[{"lat":49.54456,"lon":25.33894}]},{"ua":{"name":"Бубнівка"},"ru":{"name":"Бубновка"},"nodes":[{"lat":49.541737,"lon":26.607559}]},{"ua":{"name":"Крачки"},"ru":{"name":"Крачки"},"nodes":[{"lat":49.543434,"lon":26.686983}]},{"ua":{"name":"Таурів"},"ru":{"name":"Тауров"},"nodes":[{"lat":49.54353,"lon":25.2768}]},{"ua":{"name":"Користова"},"ru":{"name":"Корыстова"},"nodes":[{"lat":49.541821,"lon":26.256639}]},{"ua":{"name":"Кореличі"},"ru":{"name":"Кореличи"},"nodes":[{"lat":49.542862,"lon":24.546967}]},{"ua":{"name":"Іванівці"},"ru":{"name":"Ивановцы"},"nodes":[{"lat":49.540791,"lon":26.31912}]},{"ua":{"name":"Медова"},"ru":{"name":"Медовая"},"nodes":[{"lat":49.53976,"lon":25.22289}]},{"ua":{"name":"Дусанів"},"ru":{"name":"Дусанов"},"nodes":[{"lat":49.536236,"lon":24.611261}]},{"ua":{"name":"Черепівка"},"ru":{"name":"Череповка"},"nodes":[{"lat":49.53804,"lon":26.8729}]},{"ua":{"name":"Петриків"},"ru":{"name":"Петриков"},"nodes":[{"lat":49.533195,"lon":25.580851}]},{"ua":{"name":"Підгородне","old_name":"Підгородичі;Янівка;Іванівка"},"ru":{"name":"Подгородное","old_name":"Підгородичі;Янівка;Іванівка"},"nodes":[{"lat":49.5386922,"lon":25.5198852}]},{"ua":{"name":"Бачів"},"ru":{"name":"Бачев"},"nodes":[{"lat":49.540634,"lon":24.653458}]},{"ua":{"name":"Романівка"},"ru":{"name":"Романовка"},"nodes":[{"lat":49.53701,"lon":25.81761}]},{"ua":{"name":"Ступки"},"ru":{"name":"Ступки"},"nodes":[{"lat":49.53701,"lon":25.749889}]},{"ua":{"name":"Надрічне"},"ru":{"name":"Надречное"},"nodes":[{"lat":49.53564,"lon":24.963}]},{"ua":{"name":"Маначин"},"ru":{"name":"Маначин"},"nodes":[{"lat":49.541729,"lon":26.34771}]},{"ua":{"name":"Шайбівка"},"ru":{"name":"Шайбовка"},"nodes":[{"lat":49.533352,"lon":24.731228}]},{"ua":{"name":"Вигода"},"ru":{"name":"Выгода"},"nodes":[{"lat":49.538734,"lon":26.374277}]},{"ua":{"name":"Смиківці"},"ru":{"name":"Смыковцы"},"nodes":[{"lat":49.5322,"lon":25.7087}]},{"ua":{"name":"Антонівка"},"ru":{"name":"Антоновка"},"nodes":[{"lat":49.530666,"lon":26.78471}]},{"ua":{"name":"Гарнишівка"},"ru":{"name":"Гарнышевка"},"nodes":[{"lat":49.533863,"lon":26.339016}]},{"ua":{"name":"Будилів"},"ru":{"name":"Будилов"},"nodes":[{"lat":49.53117,"lon":25.23457}]},{"ua":{"name":"Захарівці"},"ru":{"name":"Захаровцы"},"nodes":[{"lat":49.530491,"lon":26.72287}]},{"ua":{"name":"Вербів"},"ru":{"name":"Вербов"},"nodes":[{"lat":49.53014,"lon":24.851419}]},{"ua":{"name":"Нараїв"},"ru":{"name":"Нараев"},"nodes":[{"lat":49.5298,"lon":24.775539}]},{"ua":{"name":"Вимислівка"},"ru":{"name":"Вымысловка"},"nodes":[{"lat":49.52843,"lon":25.17792}]},{"ua":{"name":"Вибудів"},"ru":{"name":"Выбудов"},"nodes":[{"lat":49.52774,"lon":25.10685}]},{"ua":{"name":"Велика Калинівка"},"ru":{"name":"Великая Калиновка"},"nodes":[{"lat":49.52705,"lon":26.923031}]},{"ua":{"name":"Підволочиськ"},"ru":{"name":"Подволочиск"},"nodes":[{"lat":49.531358,"lon":26.1440799}]},{"ua":{"name":"Великі Гаї"},"ru":{"name":"Великие Гаи"},"nodes":[{"lat":49.525681,"lon":25.638309}]},{"ua":{"name":"Великі Бірки"},"ru":{"name":"Великие Борки"},"nodes":[{"lat":49.5244111,"lon":25.7547038}]},{"ua":{"name":"Бишки"},"ru":{"name":"Бышки"},"nodes":[{"lat":49.52499,"lon":25.03578}]},{"ua":{"name":"Галущинці"},"ru":{"name":"Галущинцы"},"nodes":[{"lat":49.5243212,"lon":25.89993}]},{"ua":{"name":"Сергіївка"},"ru":{"name":"Сергеевка"},"nodes":[{"lat":49.522377,"lon":26.620075}]},{"ua":{"name":"Забойки"},"ru":{"name":"Забойки"},"nodes":[{"lat":49.5286542,"lon":25.4491366}]},{"ua":{"name":"Підлісне"},"ru":{"name":"Подлесное"},"nodes":[{"lat":49.51984,"lon":24.92317}]},{"ua":{"name":"Зелена"},"ru":{"name":"Зелёная"},"nodes":[{"lat":49.519501,"lon":26.50177}]},{"ua":{"name":"Мовчанівка"},"ru":{"name":"Молчановка"},"nodes":[{"lat":49.5219876,"lon":26.0336061}]},{"ua":{"name":"Климашівка"},"ru":{"name":"Климашовка"},"nodes":[{"lat":49.51881,"lon":26.992041}]},{"ua":{"name":"Писарівка"},"ru":{"name":"Писаревка"},"nodes":[{"lat":49.518406,"lon":26.441816}]},{"ua":{"name":"Лозова"},"ru":{"name":"Лозовая"},"nodes":[{"lat":49.514267,"lon":26.298035}]},{"ua":{"name":"Липівка"},"ru":{"name":"Липовка"},"nodes":[{"lat":49.51659,"lon":24.566322}]},{"ua":{"name":"Слобідка"},"ru":{"name":"Слободка"},"nodes":[{"lat":49.51641,"lon":25.34443}]},{"ua":{"name":"Дуляби"},"ru":{"name":"Дулябы"},"nodes":[{"lat":49.511673,"lon":24.727192}]},{"ua":{"name":"Почапинці"},"ru":{"name":"Почапинцы"},"nodes":[{"lat":49.5199627,"lon":25.473512499999998}]},{"ua":{"name":"Вовча Гора"},"ru":{"name":"Волчья Гора"},"nodes":[{"lat":49.514008,"lon":26.754065}]},{"ua":{"name":"Потік"},"ru":{"name":"Поток"},"nodes":[{"lat":49.51401,"lon":25.03304}]},{"ua":{"name":"Подусільна"},"ru":{"name":"Подусельна"},"nodes":[{"lat":49.514027,"lon":24.703314}]},{"ua":{"name":"Черепова"},"ru":{"name":"Череповая"},"nodes":[{"lat":49.511261,"lon":26.87874}]},{"ua":{"name":"Хмелиська"},"ru":{"name":"Хмелиска"},"nodes":[{"lat":49.51126,"lon":25.99503}]},{"ua":{"name":"Мислова"},"ru":{"name":"Мыслова"},"nodes":[{"lat":49.508121,"lon":26.152954}]},{"ua":{"name":"Жуків"},"ru":{"name":"Жуков"},"nodes":[{"lat":49.5111121,"lon":24.9454254}]},{"ua":{"name":"Наркевичі","old_name":"Ясне"},"ru":{"name":"Наркевичи","old_name":"Ясне"},"nodes":[{"lat":49.5180971,"lon":26.6367935}]},{"ua":{"name":"Кривня"},"ru":{"name":"Кривня"},"nodes":[{"lat":49.508324,"lon":24.581635}]},{"ua":{"name":"Ляпинці"},"ru":{"name":"Ляпинцы"},"nodes":[{"lat":49.50853,"lon":26.740524}]},{"ua":{"name":"Копачівка"},"ru":{"name":"Копачовка"},"nodes":[{"lat":49.508511,"lon":26.2714}]},{"ua":{"name":"Юхимівці"},"ru":{"name":"Юхимовцы"},"nodes":[{"lat":49.505566,"lon":26.626637}]},{"ua":{"name":"Ценів"},"ru":{"name":"Ценёв"},"nodes":[{"lat":49.5075538,"lon":25.1091039}]},{"ua":{"name":"Куропатники"},"ru":{"name":"Куропатники"},"nodes":[{"lat":49.5068,"lon":25.01175}]},{"ua":{"name":"Мислова"},"ru":{"name":"Мыслова"},"nodes":[{"lat":49.50542,"lon":26.143}]},{"ua":{"name":"Чорний Острів"},"ru":{"name":"Чёрный Остров"},"nodes":[{"lat":49.5050201,"lon":26.756082}]},{"ua":{"name":"Гиновичі"},"ru":{"name":"Гиновичи"},"nodes":[{"lat":49.5012621,"lon":24.9391225}]},{"ua":{"name":"Жеребки"},"ru":{"name":"Жеребки"},"nodes":[{"lat":49.50405,"lon":25.8989}]},{"ua":{"name":"Порохня"},"ru":{"name":"Порохня"},"nodes":[{"lat":49.503361,"lon":26.374741}]},{"ua":{"name":"Драганівка"},"ru":{"name":"Драгановка"},"nodes":[{"lat":49.5078142,"lon":25.511793}]},{"ua":{"name":"Осташки"},"ru":{"name":"Осташки"},"nodes":[{"lat":49.503265,"lon":26.847765}]},{"ua":{"name":"Велика Березовиця"},"ru":{"name":"Великая Березовица"},"nodes":[{"lat":49.5019863,"lon":25.6112886}]},{"ua":{"name":"Рубче"},"ru":{"name":"Рубче"},"nodes":[{"lat":49.50135,"lon":24.668703}]},{"ua":{"name":"Городище"},"ru":{"name":"Городище"},"nodes":[{"lat":49.49959,"lon":25.33962}]},{"ua":{"name":"Рівна"},"ru":{"name":"Ровная"},"nodes":[{"lat":49.497894,"lon":24.713362}]},{"ua":{"name":"Мар’янівка"},"ru":{"name":"Марьяновка"},"nodes":[{"lat":49.496498,"lon":26.757549}]},{"ua":{"name":"Погребівка"},"ru":{"name":"Погребовка"},"nodes":[{"lat":49.496151,"lon":24.67358}]},{"ua":{"name":"Баглаї"},"ru":{"name":"Баглаи"},"nodes":[{"lat":49.500011,"lon":26.575893}]},{"ua":{"name":"Красівка"},"ru":{"name":"Красовка"},"nodes":[{"lat":49.49512,"lon":25.72517}]},{"ua":{"name":"Горби"},"ru":{"name":"Горбы"},"nodes":[{"lat":49.49238,"lon":25.30495}]},{"ua":{"name":"Великий Ходачків"},"ru":{"name":"Великий Ходачков"},"nodes":[{"lat":49.49203,"lon":25.43644}]},{"ua":{"name":"Пилипівці"},"ru":{"name":"Пилиповцы"},"nodes":[{"lat":49.491589,"lon":24.721266}]},{"ua":{"name":"Сеньків"},"ru":{"name":"Сеньков"},"nodes":[{"lat":49.49169,"lon":25.10616}]},{"ua":{"name":"Малий Ходачків"},"ru":{"name":"Малый Ходачков"},"nodes":[{"lat":49.4906742,"lon":25.8291248}]},{"ua":{"name":"Воронів"},"ru":{"name":"Воронов"},"nodes":[{"lat":49.490662,"lon":24.574699}]},{"ua":{"name":"Війтівці"},"ru":{"name":"Войтовцы"},"nodes":[{"lat":49.4932735,"lon":26.4448161}]},{"ua":{"name":"Лапшин"},"ru":{"name":"Лапшин"},"nodes":[{"lat":49.48997,"lon":24.92455}]},{"ua":{"name":"Острів"},"ru":{"name":"Остров"},"nodes":[{"lat":49.48894,"lon":25.5827}]},{"ua":{"name":"Млинці"},"ru":{"name":"Млинцы"},"nodes":[{"lat":49.48894,"lon":25.33859}]},{"ua":{"name":"Мартинівка"},"ru":{"name":"Мартыновка"},"nodes":[{"lat":49.486229,"lon":26.774124}]},{"ua":{"name":"Кліщівна"},"ru":{"name":"Клещивна"},"nodes":[{"lat":49.487591,"lon":24.594759}]},{"ua":{"name":"Уритва"},"ru":{"name":"Урытва"},"nodes":[{"lat":49.48826,"lon":25.20058}]},{"ua":{"name":"Трительники"},"ru":{"name":"Трительники"},"nodes":[{"lat":49.490788,"lon":26.537256}]},{"ua":{"name":"Олесине"},"ru":{"name":"Олесино"},"nodes":[{"lat":49.4883627,"lon":25.1691958}]},{"ua":{"name":"Плотича"},"ru":{"name":"Плотыча"},"nodes":[{"lat":49.48688,"lon":25.29259}]},{"ua":{"name":"Криштопівка"},"ru":{"name":"Крыштоповка"},"nodes":[{"lat":49.486492,"lon":26.500299}]},{"ua":{"name":"Кип’ячка"},"ru":{"name":"Кипячка"},"nodes":[{"lat":49.48482,"lon":25.70046}]},{"ua":{"name":"Мирівка"},"ru":{"name":"Мировка"},"nodes":[{"lat":49.48394,"lon":26.265736}]},{"ua":{"name":"Чернилівка"},"ru":{"name":"Черниловка"},"nodes":[{"lat":49.4741046,"lon":26.1535355}]},{"ua":{"name":"Поляни"},"ru":{"name":"Поляны"},"nodes":[{"lat":49.480019,"lon":26.219219}]},{"ua":{"name":"Товстолуг"},"ru":{"name":"Толстолуг"},"nodes":[{"lat":49.47933,"lon":25.72895}]},{"ua":{"name":"Кривачинці"},